Pincode,Area,City,Address,Landmark,Latitude,Longitude,Category,Rating,Name
411001,"Iricen Railway Colony, Koregaon Park",Pune,"Iricen Railway Colony, 87 s main rd, S Main Rd","Iricen Railway Colony, Koregaon Park",18.5330933,73.88949029999999,Hostel,3.6,"Samajkalyan Hostel, Koregaon Park"
411001,"Ragvilas Society, Koregaon Park",Pune,"301, PARKVIEW TERRACE SOCIETY, LANE NO-4, A, N Main Rd","Ragvilas Society, Koregaon Park",18.5396895,73.8944705,Hostel,4.9,Shri Sai Girls PG Hostel Koregaon Park Pune
411001,"Liberty Phase 2, Ragvilas Society, Koregaon Park",Pune,"A-5, Liberty Rd","Liberty Phase 2, Ragvilas Society, Koregaon Park",18.540603,73.89751079999999,Hostel,1.280584953866858,Riverside liberty sosiety
411001,"Ganga Fortune Society, Liberty Phase 2, Ragvilas Society, Koregaon Park",Pune,"Plot 31, SNo.31, 1, N Main Rd","Ganga Fortune Society, Liberty Phase 2, Ragvilas Society, Koregaon Park",18.5385924,73.8981914,Hostel,4.4,Urban Nomads Pods I Co-live & Co-work
411001,"C, Ragvilas Society, Koregaon Park",Pune,"302/63, C Ln","C, Ragvilas Society, Koregaon Park",18.5410156,73.8909948,Hostel,4.6,Hoshtel99
411001,"Liberty Phase 2, Ragvilas Society, Koregaon Park",Pune,"Liberty Phase II, C/ 36, N Main Rd","Liberty Phase 2, Ragvilas Society, Koregaon Park",18.5403083,73.8964692,Hostel,3.3,GetSetHome - PG In Koregaon Park
411001,"Ragvilas Society, Koregaon Park",Pune,"36A, C Ln","Ragvilas Society, Koregaon Park",18.5411803,73.8909651,Hostel,3.7,Hostell One
411001,"Ragvilas Society, Koregaon Park",Pune,"25A, C Ln, beside budhha paradise cafe","Ragvilas Society, Koregaon Park",18.5400275,73.891224,Hostel,4.6,Jugglers Backpack
411001,"Liberty Phase 2, Ragvilas Society, Koregaon Park",Pune,"A/2 The Voyage, Ashiyana park, Koregaon Park, Lane - 5, N Main Rd, beside Wellness Forever","Liberty Phase 2, Ragvilas Society, Koregaon Park",18.5394565,73.89759579999999,Hotel,4.8,The Voyage | Cafe | Hostel | Co-work
411001,"Ragvilas Society, Koregaon Park",Pune,"B/49/B, Gurudutt Avenune Road Anna Maggi Point","Ragvilas Society, Koregaon Park",18.5420493,73.89098779999999,Hostel,2.6,PUN867 Koregaon Park
411001,"Suyojana Society, Kavadewadi, Koregaon Park",Pune,"CTS No. 120, Lane Number 4","Suyojana Society, Kavadewadi, Koregaon Park",18.5378914,73.894587,Hostel,4.2,Backpacker Panda
411001,"Liberty Phase 2, Ragvilas Society, Koregaon Park",Pune,"Liberty Phase1, Bungalow No-5 North Main Road, opposite Lane 6","Liberty Phase 2, Ragvilas Society, Koregaon Park",18.5404002,73.8989525,Hotel,4.6,Urban Nomads Pune | Co-Live & Co-Work
411001,"Vaswani Nagar, Ragvilas Society, Koregaon Park",Pune,N Main Rd,"Vaswani Nagar, Ragvilas Society, Koregaon Park",18.5397097,73.8877455,Hotel,4.2,O Hotel Pune- Koregaon Park
411001,"Vaswani Nagar, Bund Garden, Koregaon Park",Pune,"9, Burning Ghat Rd, Road, behind Bank of india","Vaswani Nagar, Bund Garden, Koregaon Park",18.5411359,73.8868025,Hotel,3.8,Park Central Hotel
411001,"Vaswani Nagar, Ragvilas Society, Koregaon Park",Pune,N Main Rd,"Vaswani Nagar, Ragvilas Society, Koregaon Park",18.5397097,73.8877455,Hotel,4.2,O Hotel Pune- Koregaon Park
411001,"Ragvilas Society, Koregaon Park",Pune,Koregaon Park-E Rd,"Ragvilas Society, Koregaon Park",18.5407938,73.894739,Hotel,4.5,Bloom Hotel - Koregaon Park
411001,"Koregaon Park Annexe, Ghorpadi",Pune,"36/3-B, Mundhwa Rd","Koregaon Park Annexe, Ghorpadi",18.5389872,73.9059319,Hotel,4.4,The Westin Pune Koregaon Park
411011,Sangamvadi,Pune,"361/2-3, Bund Garden Rd",Sangamvadi,18.539609,73.88311159999999,Hotel,4.5,Octave Koregaon Park
411001,"Iricen Railway Colony, Koregaon Park",Pune,"C-20, Lane No. 5, Vidyut Nagar, South Main Road, Koregaon Park, opp. Sanas Corner","Iricen Railway Colony, Koregaon Park",18.5327749,73.8969748,Hotel,4.0,Hotel Cozy Inn
411001,Koregaon Park,Pune,"15/A, Koregaon Rd",Koregaon Park,18.538576,73.8859192,Hotel,3.9,St Laurn Hotel
411001,"Meera Nagar Garden Society, Meera Nagar, Koregaon Park",Pune,"333, Near Cosmos Bank, Lane No. 6, N Main Rd","Meera Nagar Garden Society, Meera Nagar, Koregaon Park",18.5388388,73.8989727,Hotel,3.6,BelAir Suites Pune
411001,"Ragvilas Society, Koregaon Park",Pune,C Ln,"Ragvilas Society, Koregaon Park",18.5412651,73.8909772,Hotel,4.1,Hotel Bestow Inn
411038,"Gujrat Colony, Kothrud",Pune,"88/B, Kai Nanasaheb Sutar Path, above Tirupati Bhel","Gujrat Colony, Kothrud",18.5052048,73.80778219999999,Gym,4.8,Kothrud Fitness Gym
411038,"Maurya Vihar, Kothrud",Pune,"2nd floor, Anusagar Building,Near Kumbare, Township,Kothrud.","Maurya Vihar, Kothrud",18.502424,73.800887,Gym,4.7,ABF- All About Fitness - Gym In Kothrud
411038,"Rambaug Colony, Kothrud",Pune,"Shankar Bhawan, 2nd Floor Shri, Paud Rd","Rambaug Colony, Kothrud",18.5107339,73.8186186,Gym,4.4,"Iron Sanctuary Gym - Available on cult.fit - Gyms in Kothrud, Pune"
411038,"Paschimanagri, Kothrud",Pune,"FRXC+PP5 REVOLUTION MALL, 3rd Floor,at S.No 20/2, Plot. No. CC -3, 3rd Ln, above Big Baazar","Paschimanagri, Kothrud",18.4991341,73.82198319999999,Gym,4.4,Nitrro Wellness and Fitness Hub Kothrud
411038,"Kothrud Industrial Area, Kothrud",Pune,"Haribhau Sane Krida Sankul, 17/1B, Late GA Kulkarni Path, near Joshi Museum Of Miniature Railways","Kothrud Industrial Area, Kothrud",18.5023674,73.8234615,Gym,4.5,Fitranger Gym
411038,"Paud Road, Bhusari Colony, Kothrud",Pune,"A, Runwal Cornet, Above Women's Pantaloons, 4th Floor Paud Road Runwal Paradize","Paud Road, Bhusari Colony, Kothrud",18.5085422,73.79171199999999,Gym,4.6,Fitness365 Gym - Committed To Be Fit
411038,"Chintamani Paradise, Kothrud",Pune,"GQ4X+23X, Suraj Nagar Rd","Chintamani Paradise, Kothrud",18.5051101,73.7977332,Gym,4.2,Sweat Gym
411038,"GaneshKripa Society, Ramkrishna Paramhans Nagar, Kothrud",Pune,"GANESH KRIPA HOS SOC, AMEYA ,PLOT NO 2O-C 2,12TH LANE, VANAZ, near Subway","GaneshKripa Society, Ramkrishna Paramhans Nagar, Kothrud",18.5115872,73.8036491,Gym,5.0,Elite Edge Fitness (Gineel N Fitness)
411038,"Paud Road, Bhusari Colony, Kothrud",Pune,Paud Rd,"Paud Road, Bhusari Colony, Kothrud",18.5093136,73.7941324,Gym,4.7,KettleBell GYM
411038,"Shantiban Cooperative Housing Society, Kothrud",Pune,Dp Road Guru Ganesh Nagar Shantiban commercial complex,"Shantiban Cooperative Housing Society, Kothrud",18.5028988,73.7974321,Gym,4.2,WILD CARD fitness club
411038,"Paschimanagri, Kothrud",Pune,"Chintamani Pride Building, 301, Kothrud, near City Pride, Above Siya Restaurant","Paschimanagri, Kothrud",18.4987217,73.8194039,Gym,4.1,Solaris Chintamani Pride Kothrud
411038,"Rambaug Colony, Kothrud",Pune,"survey No 121, स्कोस्सा - द ठीक शेक एंड बाइट्स मिट कॉलेज रोड, 122, Rd Number 1, behind Chaitanya Health Club","Rambaug Colony, Kothrud",18.5117315,73.8161963,Gym,4.4,Body Fuel Fitness Club
411038,"LIC Colony, Maji Sainik Visahat, Kothrud",Pune,125,"LIC Colony, Maji Sainik Visahat, Kothrud",18.5150614,73.8172362,Gym,5.0,Ethcure Fitness Club
411038,"Dahanukar A, Dahanukar Colony, Kothrud",Pune,"Kothrud Bus Station, 1st Floor, PMT Bldg., Kothrud Bus Stand, Karve Rd","Dahanukar A, Dahanukar Colony, Kothrud",18.4998042,73.81357109999999,Gym,4.6,The Hilife Fitness
411038,"Left Bhusari Colony, Bhusari Colony, Kothrud",Pune,"Venture, 4th floor, Paud Rd, above McDonald's","Left Bhusari Colony, Bhusari Colony, Kothrud",18.5081276,73.79647469999999,Gym,3.8,VCPL FIT - Best Gym in Kothrud
411038,"Left Bhusari Colony, Bhusari Colony, Kothrud",Pune,Paud Rd,"Left Bhusari Colony, Bhusari Colony, Kothrud",18.5079203,73.789236,Gym,4.4,Siddhi Health Club
411038,"Datta Nagar, Kothrud",Pune,"Mahalaxmi Colony, Sutardara, Lane 5, Paud Rd","Datta Nagar, Kothrud",18.5188534,73.8073196,Gym,4.8,Muscle & Fitness Gym
411038,"Mayur Colony, Kothrud",Pune,"128, 2, JP Naik Rd, off Karve Road","Mayur Colony, Kothrud",18.5057345,73.81942269999999,Gym,4.3,Solaris Sports World
411038,"Shastri Nagar, Kothrud",Pune,"Ashish Plaza, near More Market","Shastri Nagar, Kothrud",18.5025944,73.8025952,Gym,4.8,Fitness Saya
411038,"Gurha Slathia, Ideal Colony, Kothrud",Pune,"Ideal Colony Ground, behind Geetai shopping mall, off, Paud Rd","Gurha Slathia, Ideal Colony, Kothrud",18.5081488,73.81765709999999,Gym,4.8,FCS Pune
411038,"Mayur Colony, Kothrud",Pune,Sr. No. 135 near Shivshakti Society,"Mayur Colony, Kothrud",18.5043141,73.8141469,Gym,4.8,FCS Arena
411038,"Shastri Nagar, Kothrud",Pune,"Paud Rd, near Vanaz Shiv Mandir","Shastri Nagar, Kothrud",18.5047927,73.8046794,Gym,4.9,Stealth Performance Training And Transformation Studio
411038,"Mahaganesh Colony, Kothrud",Pune,127,"Mahaganesh Colony, Kothrud",18.5095689,73.8202329,Gym,4.1,Active People
411038,"Rambaug Colony, Kothrud",Pune,Vishwashanti Marg,"Rambaug Colony, Kothrud",18.5114839,73.81586709999999,Gym,4.5,Metrocity Sports and Health Club
411038,"Shastri Nagar, Kothrud",Pune,"Flat number- 2 , Yamunai Niwas, Mokate building, sangam chawk","Shastri Nagar, Kothrud",18.5048121,73.80312409999999,Gym,4.9,The Soul Fitness ( Personal Fitness Training Studio )
411029,"Happy Colony, Kothrud",Pune,"Walchand House, 3rd floor","Happy Colony, Kothrud",18.4961353,73.8140979,Gym,4.9,FITholic Personal Fitness Studio
411038,"Pratik Nagar, Kothrud",Pune,"wolfenstein gym, 5TH floor, spectra, Paud Rd","Pratik Nagar, Kothrud",18.5082401,73.8108331,Gym,3.8,Wolfenstein Gym
411058,"Shastri Nagar, Kothrud",Pune,GR33+WHC,"Shastri Nagar, Kothrud",18.5048022,73.8038832,Gym,4.3,Sangam Mitra Mandal's Gym
411038,"Jhala Co-Op Housing Society, Kothrud",Pune,"CHOICE INSTITUTE,GROUND FLOOR DAULAT ESTATE OFF KARVE ROAD, near CHOICE HEALTH CLUB","Jhala Co-Op Housing Society, Kothrud",18.5063688,73.8209883,Gym,4.9,Bialete Fitness Studio In Kothrud
411038,"Kothrud Industrial Area, Kothrud",Pune,"10, Kothrud Industrial Estate, near Oblique Kitchen","Kothrud Industrial Area, Kothrud",18.5014264,73.8234277,Gym,4.7,Atenx Performance Studio
411038,"Shivathirth Nagar, Akhil Shivtirth Nagar Colony, Kothrud",Pune,"shivshankar apartments, Paud Rd","Shivathirth Nagar, Akhil Shivtirth Nagar Colony, Kothrud",18.5125847,73.8085278,Gym,4.1,Bodymaster Gym and fitness centre
411038,"Rambaug Colony, Erandwane",Pune,"Maji Sainik Vasahat, Paud Rd","Rambaug Colony, Erandwane",18.5127383,73.8194668,Gym,4.2,Dynamix Fitness
411038,"Chaitanya Nagar, Kothrud",Pune,"Narayani Building, Sangeetkar Shrikant Thakare Rd","Chaitanya Nagar, Kothrud",18.4957942,73.8021699,Gym,4.0,Avenjue fitness centre
411038,"Shilpa Housing Society, Yashashree Society, Rambaug Colony, Kothrud",Pune,"Yashashree Badminton Court, 47, Paud Rd","Shilpa Housing Society, Yashashree Society, Rambaug Colony, Kothrud",18.5173962,73.8177422,Gym,4.9,The Steel Core Martial Arts Club
411029,"Chaitanya Nagar, Kothrud",Pune,"WOODLAND HARMONY, Gandhi Bhavan Rd","Chaitanya Nagar, Kothrud",18.4983852,73.8042388,Gym,4.9,Ethos - An Exclusive Personal Training Studio
411038,"Azad Nagar, Kothrud",Pune,"GR25+V7P, DP Rd, opp. Paranjape School","Azad Nagar, Kothrud",18.5022235,73.8082144,Gym,3.8,Bharat Ratna Sachin Tendulkar Gymnasium - BSTG
411038,"Gananjay Society, Chaitanya Nagar, Kothrud",Pune,"Unit 2, Gananjay badminton hall Near Badhai sweets, Besides Woodland Society, Road","Gananjay Society, Chaitanya Nagar, Kothrud",18.4996208,73.8045511,Gym,5.0,Inspire Functional Fitness Kothrud
411038,"Azad Nagar, Kothrud",Pune,"Shop No 8, Drushti Building, Swami Vivekanand Chowk","Azad Nagar, Kothrud",18.5040792,73.8051207,Gym,4.9,Faith Fitness
411038,"Mahatma Society, Kothrud",Pune,"GR88+33Q, Vishwashanti Marg, Paud Rd","Mahatma Society, Kothrud",18.5152055,73.8152241,Gym,3.8,Metrocity Fitness Club
411038,"Mayur Colony, Kothrud",Pune,"4 th floor, Opposite karve putla, Karve Rd, next to hp petrol pump, above dominos pizza","Mayur Colony, Kothrud",18.5023502,73.8153064,Gym,4.8,La fit kothrud
411038,"Shastri Nagar, Kothrud",Pune,GR34+92G,"Shastri Nagar, Kothrud",18.5034375,73.80506249999999,Gym,4.8,Flab to Fab Wellness World
411038,"Akhil Shivtirth Nagar Colony, Kothrud",Pune,"Atharva Residency, Opp. Yogananda Park Soc II, Paud Road, Kothrud, near Utsav Sabhagruha","Akhil Shivtirth Nagar Colony, Kothrud",18.5110997,73.8061682,Gym,3.3,Orion Health Centre
411038,"Sankalp Society, Kothrud",Pune,Near mamasaheb mohol (PMC) school,"Sankalp Society, Kothrud",18.5110703,73.82195279999999,Gym,4.7,DIVA GYMNASIUM (UNISEX)
411038,"Dahanukar A, Dahanukar Colony, Kothrud",Pune,"sr.no 27, Punit Yash Arcade, near, Kothrud Bus Stand Rd","Dahanukar A, Dahanukar Colony, Kothrud",18.498384,73.8134481,Gym,4.3,Gym personal trainer
411038,"Alkapuri Society, Kothrud",Pune,"F/4 /4 State bank nagar co-operative housing society, behind vanaz company","Alkapuri Society, Kothrud",18.5055858,73.80574849999999,Gym,5.0,Fitness Guru Manoj Surve's Personal Training Studio
411038,"Bhusari Colony, Kothrud",Pune,"SR NO101, Kothrud.NEAR CHANDANI CHOUK.BHUSARI COLONY","Bhusari Colony, Kothrud",18.5129882,73.78945759999999,Gym,4.2,CLUB WESTERN
411038,"Mayur Colony, Kothrud",Pune,"Yashwantrao Chavan Auditorium, near Shivaji Statue","Mayur Colony, Kothrud",18.5024073,73.8128649,Gym,4.4,Metrocity Kids Gym
411038,"Mayur Colony, Kothrud",Pune,"GR39+578, Karve Rd","Mayur Colony, Kothrud",18.5029206,73.8182101,Gym,4.6,Vikram's Fitness Studio
411038,"Kothrud Industrial Area, Bharatkunj -2, Erandwane",Pune,66,"Kothrud Industrial Area, Bharatkunj -2, Erandwane",18.5024621,73.8242959,Gym,4.5,Kettlebell GYM
411016,"Hanuman Nagar, Kothrud",Pune,"junwadi, 54, Gokhale Nagar Rd","Hanuman Nagar, Kothrud",18.5144526,73.8225995,Gym,5.0,Golden Gym Fitness Club
411016,"Rambaug Colony, Kothrud",Pune,Gokhale Nagar Rd,"Rambaug Colony, Kothrud",18.5240657,73.8175906,Gym,4.9,TeamJBars
411038,Kothrud,Pune,"WING-H, Paud Rd",Kothrud,18.5088909,73.8118321,Gym,4.8,Four fabs gym
411038,"Azad Nagar, Kothrud",Pune,"Pristine, Sr. No.: 87/6, Azad Nagar, Near Paranjape High School, DP Rd","Azad Nagar, Kothrud",18.5022173,73.8072862,Gym,5.0,Club Pristine
411058,"Shastri Nagar, Kothrud",Pune,"GR33+MQX, Shastri Nagar Rd","Shastri Nagar, Kothrud",18.5042475,73.8044716,Gym,3.7,Body Temple
411038,"Rambaug Colony, Kothrud",Pune,"Ideal Chambers, Paud Rd","Rambaug Colony, Kothrud",18.5106607,73.81766809999999,Gym,5.0,HaloMi Fitness
411038,"Dahanukar A, Dahanukar Colony, Kothrud",Pune,FRX6+RW5,"Dahanukar A, Dahanukar Colony, Kothrud",18.4995206,73.8123543,Gym,5.0,Fcs dahanukar
411052,Karve Nagar,Pune,"FRRC+RCC, 1st Floor, Sr.no.29/1",Karve Nagar,18.492267,73.821105,Gym,4.1,Valeosis Fitness Club
411052,"Mavale Basti, Hingne Budrukh, Karve Nagar",Pune,"Plot No 185, Khatape Complex, In front of Vandevi Temple, Karvenagar, Pune","Mavale Basti, Hingne Budrukh, Karve Nagar",18.4923885,73.81559469999999,Gym,4.8,Maharudraya Hardcore Gym
411038,"Paud Road, Bhusari Colony, Kothrud",Pune,"plot no, mandakini apartments left bhusari colony, flat no.7, left B, 21, Paud Rd","Paud Road, Bhusari Colony, Kothrud",18.5069109,73.7940488,Gym,4.9,Cineflip Zone
411058,"Gananjay Society, Chaitanya Nagar, Kothrud",Pune,"Front of, Gananjay Badminton Hall, Woodland Society Internal Road","Gananjay Society, Chaitanya Nagar, Kothrud",18.499621,73.804551,Gym,5.0,80/20 Fit Club | Best Fitness Club In Pune
411038,"Mayur Colony, Kothrud",Pune,"Pushpashanti Tower, 4th floor, Karve Rd, above dominos pizza, karve statue","Mayur Colony, Kothrud",18.5023462,73.81533089999999,Gym,5.0,Slimwell Clinic
411038,"Rahul Nagar, Kothrud",Pune,"1st Floor, Anand Nilay Building, Near Bank Of Maharashtra, Karve Statue, Karve Road, Kothrud, Kothrud","Rahul Nagar, Kothrud",18.4983064,73.813811,Gym,3.6,Abs For Her Fitness Centre
411038,"Mayur Colony, Kothrud",Pune,Balshikshan english medium school,"Mayur Colony, Kothrud",18.5040184,73.81714629999999,Gym,4.7,Boxing club in Pune | UKBC BOXING CLUB
411038,"Jijai Nagar, Kothrud",Pune,FQXQ+H93,"Jijai Nagar, Kothrud",18.4988865,73.7884357,Gym,4.6,Woods Royale A Wing Club House
411038,"Mahaganesh Colony, Kothrud",Pune,"Shubhay Banglow Plot 6, Hill View Society, Paud Rd, near Chaitanya Paratha","Mahaganesh Colony, Kothrud",18.5089982,73.8218193,Gym,4.9,MM Yoga
411052,"Warje Jakat Naka, Hingane Home Colony, Karve Nagar",Pune,"BLOCK-B, Warje Malwadi Rd","Warje Jakat Naka, Hingane Home Colony, Karve Nagar",18.4876852,73.8133695,Gym,4.1,Wild Card Fitness Club
411038,"Bhelkenagar, Kothrud",Pune,"2 floor, bhelake complex, near yashwant rao chavan natya gruh","Bhelkenagar, Kothrud",18.5022328,73.8109869,Gym,5.0,Bicep Busters
411052,"Navasahyadri Society, Ganesh Nagar, Karve Nagar",Pune,"Medhavi Bunglow, Tol hospital chowk Rickshaw Stand Lane","Navasahyadri Society, Ganesh Nagar, Karve Nagar",18.4959575,73.8289389,Gym,4.9,Myofit Gym/Personal Training/Yoga Studio
411038,"Jijai Nagar, Kothrud",Pune,"Vardhaman Jain STHANK HALL KASHIKAPADI PURAM, near DOMINO'S PIZZA, behind EKLAVYA COLLEGE","Jijai Nagar, Kothrud",18.5018772,73.7954456,Gym,4.9,Divya Yoga Studio
411038,"Shree Colony, Azad Nagar, Kothrud",Pune,"Auditorium, Gananjay Society Unit No 1 Road","Shree Colony, Azad Nagar, Kothrud",18.5033805,73.8061973,Gym,4.9,Aanand yog kothrud
411038,"Rambaug Colony, Kothrud",Pune,"GR78+Q4R, Vishwashanti Marg","Rambaug Colony, Kothrud",18.514498,73.8152776,Gym,3.9,Green Box Astro Turf
411029,"Mahaganesh Colony, Kothrud",Pune,"127/3-C, Asawari Hsg Soc, Behind Zala Apts, Near Karve Road, Kothrud","Mahaganesh Colony, Kothrud",18.5070282,73.8203728,Gym,5.0,Dr Rahalkar's Pregcare and Healthcare
411052,"Dnydeep Colony, Hingne Budrukh, Karve Nagar",Pune,"64, Trimurti Niwas, Sr No 23, Hind Swaraj Chowk","Dnydeep Colony, Hingne Budrukh, Karve Nagar",18.490151,73.81720299999999,Gym,4.1,Trimurti Gym
411052,Warje,Pune,"Near Yuvak Mitra Mandal, Karvenagar, NDA Road, Vadacha Stop, Pune 411052",Warje,18.4763463,73.79677149999999,Gym,4.5,Fitness Centre and Gym-Real Fitness Club
411038,"Chaitanya Nagar, Kothrud",Pune,The Leanlife Woodland society,"Chaitanya Nagar, Kothrud",18.4981887,73.8042507,Gym,5.0,The Lean Life
411052,"Sahu Colony, Karve Nagar",Pune,Sangunabai Bhoj Path,"Sahu Colony, Karve Nagar",18.486586,73.8153497,Gym,4.0,Zeus Fitness Zone
411038,"Mayur Colony, Kothrud",Pune,"Jain Sthanak Bhavan Mayur colony in front of Durga Caffe Jain Sthanak Bhavan, in front of Durga Caffe","Mayur Colony, Kothrud",18.5055227,73.81716,Gym,4.7,PUNE FITNESS ACADEMY
411038,"LIC Colony, Shastri Nagar, Kothrud",Pune,"41, Paud Rd","LIC Colony, Shastri Nagar, Kothrud",18.5109289,73.81813609999999,Gym,5.0,Dragon Mma Gym
411016,"Sheti Mahamandal Colony, Patrakar Nagar, Gokhalenagar",Pune,"Samaj Mandir (Hanuman nagar Ganapati Mandir), Senapati Bapat Rd","Sheti Mahamandal Colony, Patrakar Nagar, Gokhalenagar",18.5237172,73.82707529999999,Gym,4.6,Spa Fitness
411021,"Sagar Co-Operative Housing Society, Bavdhan",Pune,"Dr. Homi Bhabha Rd, opp. Bank Of Maharashtra","Sagar Co-Operative Housing Society, Bavdhan",18.5151246,73.781853,Gym,4.2,Gold's Gym Bavdhan
411058,Warje,Pune,"5th, Snehadeep Complex, Near, Warje Flyover",Warje,18.4795601,73.8043261,Gym,4.4,H Factor Health and Fitness
411058,"Shastri Nagar, Kothrud",Pune,"Healthy Home Aashish plaza Pune, 411038","Shastri Nagar, Kothrud",18.5025284,73.8026138,Gym,3.8,HealthyHome24'7FIT
411038,"Kothrud Industrial Area, Kothrud",Pune,"17, Haribhau Sane Krida Sankul, near Joshi Museum of Miniature Railways","Kothrud Industrial Area, Kothrud",18.502211,73.8236584,Gym,4.4,Sanmitra Sangha
411004,"Bhageerath, Erandwane",Pune,Kishor Bhagirath Tapadia Rd,"Bhageerath, Erandwane",18.5090354,73.8330241,Gym,4.6,Aayush fitness and slimming centre
411038,"Rambaug Colony, Kothrud",Pune,Paud Rd,"Rambaug Colony, Kothrud",18.5162816,73.81763099999999,Gym,4.8,Nirvana Yoga
411038,Kothrud,Pune,"Narayani Building, Kothrud, Opposite Sahayanand Bus Stop, Kothrud",Kothrud,18.5086606,73.8125444,Gym,1.0,Avenue Fitness Centre
411038,"Bhusari Colony, Kothrud",Pune,GQ6R+GG2,"Bhusari Colony, Kothrud",18.5112533,73.7912674,Park,4.4,Pandit Bhimsen Joshi Udyan
411038,"Dahanukar A, Dahanukar Colony, Kothrud",Pune,28/12,"Dahanukar A, Dahanukar Colony, Kothrud",18.4996602,73.812302,Park,4.1,Bal Vikas Kendra Park
411038,"Anupam Park, Paschimanagri, Kothrud",Pune,62,"Anupam Park, Paschimanagri, Kothrud",18.4999985,73.8186511,Park,3.8,Anupam Park
411038,"Mayur Colony, Kothrud",Pune,"Shivaji Maharaj Statue, DP Rd, Next to Yashwantrao Natyagruha","Mayur Colony, Kothrud",18.5022954,73.8132337,Park,4.4,Thorat Garden
411038,"Shastri Nagar, Kothrud",Pune,GR43+574,"Shastri Nagar, Kothrud",18.5053845,73.80318849999999,Park,3.9,Nana Nani Park
411038,"Anand Nagar, Kothrud",Pune,"7, 9","Anand Nagar, Kothrud",18.5092535,73.81539289999999,Park,4.0,Anand Nagar Park 7
411038,"Mayur Colony, Kothrud",Pune,GR39+Q9V,"Mayur Colony, Kothrud",18.504495,73.8184263,Park,4.0,Mayur Colony Residents Park
411038,"Anant Kurpa Society, Lokmanya Colony, Kothrud",Pune,"S. No. 116, Rahul Park, Street 8A, Paud Rd, near Utsav Sabhagruha","Anant Kurpa Society, Lokmanya Colony, Kothrud",18.5098677,73.8071669,Hostel,4.0,Rahul Park
411038,Kothrud,Pune,"GQ2W+QW3, Mangaldham Society",Kothrud,18.5018846,73.79728759999999,Park,4.828994270162344,Trimiti Park
411038,"Mayur Colony, Kothrud",Pune,"Shop no 3, Aishwarya Complex","Mayur Colony, Kothrud",18.5049483,73.8127445,Park,3.9,Nilu Phule garden
411038,"Paud Road, Bhusari Colony, Kothrud",Pune,B5,"Paud Road, Bhusari Colony, Kothrud",18.5092379,73.79337919999999,Park,4.0,Community Playground
411038,"Mayur Colony, Kothrud",Pune,14/A,"Mayur Colony, Kothrud",18.5047715,73.8137213,Park,3.6,Sutar Udyan
411029,"Mahatma Society, Kothrud",Pune,"GQ2W+2WF, Kamdhenu Siddhi Rd","Mahatma Society, Kothrud",18.5000738,73.79728469999999,Park,1.161294594734189,Children Park
411038,"Paschimanagri, Kothrud",Pune,"Near, Anupam Complex Rd","Paschimanagri, Kothrud",18.4980603,73.81635849999999,Park,3.5,Jitendra Abhisheki Garden
411038,"Paschimanagri, Kothrud",Pune,GR29+H38,"Paschimanagri, Kothrud",18.501401,73.817713,Park,4.0,Vitthal Rakhmai Park
411058,"Vrindavan Colony, Alkapuri Society, Kothrud",Pune,GR44+GJ4,"Vrindavan Colony, Alkapuri Society, Kothrud",18.5062743,73.8065724,Park,4.2,Late Sachin Angre Udyan
411038,"Krutika Co-operative Housing Society, Tejas Society, Dahanukar Colony, Kothrud",Pune,"amit park, behind Mantri Park, near Kothrud Stand","Krutika Co-operative Housing Society, Tejas Society, Dahanukar Colony, Kothrud",18.4986677,73.80996209999999,Hostel,4.1,Amit Park
411038,"Pramathesh Housing Society, Jijai Nagar, Kothrud",Pune,1,"Pramathesh Housing Society, Jijai Nagar, Kothrud",18.4987474,73.7935877,Park,4.3,Jijamata Udyan
411038,"Mangaldham Society, Mahatma Society, Kothrud",Pune,GQ2X+P9W,"Mangaldham Society, Mahatma Society, Kothrud",18.5018702,73.7984622,Hostel,4.2,Soba Park
411038,"Dahanukar Colony, Kothrud",Pune,FRW6+5P9,"Dahanukar Colony, Kothrud",18.4954122,73.8118501,Park,1.0,कै वामनराव डहाणूकर उद्यान
411038,"Mayur Colony, Kothrud",Pune,P-16,"Mayur Colony, Kothrud",18.503137,73.81598199999999,Park,4.0,Mrityunjay Garden
411058,"Bhelkenagar, Kothrud",Pune,GR36+C9R,"Bhelkenagar, Kothrud",18.5036034,73.8108817,Hostel,3.8,Bhelke Park
411038,"Bharti Nagar, Kothrud",Pune,"Off, DP Rd","Bharti Nagar, Kothrud",18.5053565,73.7962111,Hostel,5.0,Pooja Park Society
411038,"Bhusari Colony, Kothrud",Pune,"4 - ka Sudarshan park,Right, Paud Rd","Bhusari Colony, Kothrud",18.5124901,73.79204539999999,Hostel,4.4,SUDARSHAN PARK
411038,"Paud Road, Bhusari Colony, Kothrud",Pune,"GQ4R+6GW, Siddharth Park,","Paud Road, Bhusari Colony, Kothrud",18.5056075,73.7913178,Hostel,4.0,Siddharth Park
411038,"Paud Road, Bhusari Colony, Kothrud",Pune,Plot 125,"Paud Road, Bhusari Colony, Kothrud",18.5099669,73.7937917,Hostel,3.1692046464666586,Neha Park
411038,"Bhusari Colony, Kothrud",Pune,96/206,"Bhusari Colony, Kothrud",18.5119718,73.7916979,Hostel,2.8271810909177617,Richmond Park Bhusari Colony
411038,"Ideal Colony, Kothrud",Pune,Saraswati Park,"Ideal Colony, Kothrud",18.5070021,73.8162206,Hostel,3.9,"Saraswati Park,"
411038,"LIC Colony, Rambaug Colony, Kothrud",Pune,"GR78+JPQ, Vishwashanti Marg","LIC Colony, Rambaug Colony, Kothrud",18.5140776,73.8168639,Park,4.1,Sant Dnyaneshwar Udyan
411058,"Bhelkenagar, Kothrud",Pune,GR35+7RX,"Bhelkenagar, Kothrud",18.5032258,73.8096113,Hostel,4.0,Can Park Society Kothrud
411038,"Paud Road, Mahatma Society, Kothrud",Pune,"GQ6W+23J, Paud Rd","Paud Road, Mahatma Society, Kothrud",18.510097,73.7951338,Hostel,2.5996592139125436,Samarth park
411038,"Anand Nagar, Kothrud",Pune,"18, Mrutyunjay Society Rd","Anand Nagar, Kothrud",18.5083348,73.81525859999999,Hostel,4.3,Anand Nagar Park Society
411038,"Rajpath Housing Society, Manikya Nagar, Ramkrishna Paramhans Nagar, Kothrud",Pune,"Vanaj corner, Lane No. 3","Rajpath Housing Society, Manikya Nagar, Ramkrishna Paramhans Nagar, Kothrud",18.5090236,73.80275929999999,Hostel,3.2869321374698037,Sulochan Park
411038,"Shikshaknagar Survey no 89/1, Ramkrishna Paramhans Nagar, Kothrud",Pune,"Shikshaknagar Ground, Ramchandra Mane Rd","Shikshaknagar Survey no 89/1, Ramkrishna Paramhans Nagar, Kothrud",18.51071,73.80612529999999,Hostel,5.0,Geeta Park
411038,"Gujrat Colony, Kothrud",Pune,"14, Kai Nanasaheb Sutar Path","Gujrat Colony, Kothrud",18.507203,73.807946,Hostel,2.355708490504659,Sargam Park
411058,"Pramathesh Housing Society, Jijai Nagar, Kothrud",Pune,FQWV+GC3,"Pramathesh Housing Society, Jijai Nagar, Kothrud",18.4962517,73.7935456,Park,4.5,Mahatma Hill
411038,"Rahul Nagar, Kothrud",Pune,1/12,"Rahul Nagar, Kothrud",18.5010404,73.8152762,Hostel,4.3,Motiram Park
411038,"Shantibramha Society, Chandralok Nagari, Dahanukar Colony, Kothrud",Pune,"84, Lane No. 7","Shantibramha Society, Chandralok Nagari, Dahanukar Colony, Kothrud",18.4946724,73.8109887,Hostel,2.0,SNEH PARK
411038,"Paud Road, Shikshaknagar, Ramkrishna Paramhans Nagar, Kothrud",Pune,"91/3, Yoganand Park 1","Paud Road, Shikshaknagar, Ramkrishna Paramhans Nagar, Kothrud",18.5106355,73.80582369999999,Hostel,5.0,Yoganand Park 1
411038,"Shantibramha Society, Chandralok Nagari, Dahanukar Colony, Kothrud",Pune,FRW6+4PR,"Shantibramha Society, Chandralok Nagari, Dahanukar Colony, Kothrud",18.4953707,73.8117779,Park,2.0,Dahanukar Colony Circle
411038,"Rajpath Housing Society, Manikya Nagar, Ramkrishna Paramhans Nagar, Kothrud",Pune,GR63+22M,"Rajpath Housing Society, Manikya Nagar, Ramkrishna Paramhans Nagar, Kothrud",18.510076,73.8025394,Hostel,4.7414237812847695,Sulochan Park
411038,"Mayur Colony, Kothrud",Pune,133,"Mayur Colony, Kothrud",18.5039956,73.8160288,Hostel,5.0,40 Hyde Park
411038,"Rahul Nagar, Kothrud",Pune,GR28+27P,"Rahul Nagar, Kothrud",18.5000943,73.8156922,Hostel,4.5,Lavira Park
411038,"Akhil Shivtirth Nagar Colony, Kothrud",Pune,GR64+6F6,"Akhil Shivtirth Nagar Colony, Kothrud",18.5105405,73.8061486,Hostel,1.8194964066390367,Yoganand Park 2
411038,"Shilpa Housing Society, Rambaug Colony, Kothrud",Pune,MIT Petroleum & Petrochemical Dept.,"Shilpa Housing Society, Rambaug Colony, Kothrud",18.5174584,73.81576849999999,Park,4.0,MIT Garden
411038,"Bhusari Colony, Kothrud",Pune,"Sidh vinak colony 102, bus depot, Paud Rd, behind kothrud","Bhusari Colony, Kothrud",18.5116586,73.7955114,Hostel,4.669137157251998,"Angad park ,62"
411038,"Left Bhusari Colony, Bhusari Colony, Kothrud",Pune,57/78,"Left Bhusari Colony, Bhusari Colony, Kothrud",18.5047195,73.7934011,Hostel,5.0,Vijayshree Park Apartments
411058,"Sahajanand Society Part 1, Sahajanand Society, Kothrud",Pune,"57/2 A, Sahajanand Society Rd","Sahajanand Society Part 1, Sahajanand Society, Kothrud",18.4989318,73.8001003,Hostel,4.232066314248825,"F2 Building , Vrundavan Park Soc , Inside Mahatma Soc , Kothrud Pune"
411038,"Chaitanya Nagar, Kothrud",Pune,"FRW3+X6H, Gandhi Bhavan Rd","Chaitanya Nagar, Kothrud",18.4974416,73.8031073,Hostel,4.3,Swaroop Park Co-op Housing Society
411038,"Tejas Society, Dahanukar Colony, Kothrud",Pune,"FRX6+M47, 29/2A","Tejas Society, Dahanukar Colony, Kothrud",18.4996868,73.81081999999999,Hostel,4.2,Mantri park
411038,"Anant Kurpa Society, Lokmanya Colony, Kothrud",Pune,"Plot no 62 B, Paud Rd, opp. Vanaz","Anant Kurpa Society, Lokmanya Colony, Kothrud",18.5080517,73.80653,Park,4.0,"वीरमाता जिजाऊ उद्यान , कोथरूड, पुणे"
411021,"Patil Nagar, Bavdhan",Pune,"GQFC+44C, NH 48","Patil Nagar, Bavdhan",18.5086375,73.7993594,Park,1.800774506020012,Kalam boli
411038,Kothrud,Pune,"15/5 Lotus residency lane off G A near karishma soc., Late GA Kulkarni Path",Kothrud,18.5016923,73.8205171,Hostel,4.7,Shree Chintamani Park Society
411038,"Mayur Colony, Kothrud",Pune,GR37+M36,"Mayur Colony, Kothrud",18.5041531,73.812648,Park,4.7,Tatysaheb Thorat Garden
411038,"Sahakar Vrinda Society, Ramkrishna Paramhans Nagar, Kothrud",Pune,GR63+X65,"Sahakar Vrinda Society, Ramkrishna Paramhans Nagar, Kothrud",18.5123815,73.8031237,Park,1.2132447329723934,Base Of Mhatoba Tekdi
411038,"Dahanukar Colony, Kothrud",Pune,"169, Warje Malwadi Rd","Dahanukar Colony, Kothrud",18.4966646,73.81323379999999,Hostel,5.0,Manisha Park Apartments
411038,"Gosavi Basti, Kothrud",Pune,FRW8+3MQ,"Gosavi Basti, Kothrud",18.4952128,73.8167261,Park,0.108223319769708,SAGAR Gosavi
411058,"Pratik Nagar, Gujrat Colony, Kothrud",Pune,"GR45+VRR, Paud Rd","Pratik Nagar, Gujrat Colony, Kothrud",18.5072257,73.80951139999999,Park,4.4,Pratik Nagar Play Area
411038,"Paud Road, Bhusari Colony, Kothrud",Pune,78/59,"Paud Road, Bhusari Colony, Kothrud",18.5055044,73.7936328,Park,4.1,Nanasaheb Dharmadhikari Garden
411038,"Shantibramha Society, Chandralok Nagari, Dahanukar Colony, Kothrud",Pune,"84, Lane Number 9","Shantibramha Society, Chandralok Nagari, Dahanukar Colony, Kothrud",18.493625,73.810729,Hostel,0.5618357157840304,"SNEHA PARK,DAHANUKAR COLONY"
410029,"Rahul Nagar, Kothrud",Pune,"OPP OF PK MUTTON HOUSE NEAR LUNAWAT COMPLEX KOTHRUD ,PUNE -410029","Rahul Nagar, Kothrud",18.499288,73.81508,Hostel,1.2176674368780438,SHRI RAM PARK C BULILDIND
411038,"Gururaj Society, Kothrud",Pune,"Gururaj Society Office, NEW AJANTA AVENUE, Gururaj 1st Society Rd","Gururaj Society, Kothrud",18.5079302,73.8116482,Park,1.6739197322666737,Gururaj Hall
411038,"Khud, Mulashi, Gujrat Colony, Kothrud",Pune,"S. No, 49, Paud Rd, near Suryaprabha Nursing Home | Pediatrician & ENT Surgeon in Kothrud | Sinus, Hearing, Snoring |Vertigo, Tonsil, Stroke Treatment","Khud, Mulashi, Gujrat Colony, Kothrud",18.5075181,73.8082694,Park,4.5,Preshit Gardens
411038,"Paud Road, Bhusari Colony, Kothrud",Pune,"98-47, 98-47","Paud Road, Bhusari Colony, Kothrud",18.5094468,73.78993369999999,Park,3.9,Atuls Office
411038,"Tejas Society, Dahanukar Colony, Kothrud",Pune,"Mantri Park, Shivtej Road","Tejas Society, Dahanukar Colony, Kothrud",18.4996868,73.81081999999999,Hostel,0.45690242333890185,Mantri Park. F WIng
411029,"Vrindavan Park, Maurya Vihar, Kothrud",Pune,"55, Mahatma Gandhi Society Rd","Vrindavan Park, Maurya Vihar, Kothrud",18.5000068,73.80057599999999,Hostel,3.0,B3 - Vrindavan Park
411038,Kothrud,Pune,"26, 4",Kothrud,18.5010358,73.82151189999999,Park,5.0,Jalsa Garden
38,"Paud Road, Eklavya Colony, Kothrud",Pune,"GQ4W+7GG, Pooja Park Road","Paud Road, Eklavya Colony, Kothrud",18.5056783,73.7963351,Hostel,1.2315487090471655,Ameya Apartment Pooja Park
411004,"Pandurang Colony, Erandwane",Pune,"GR3G+9C5, Paud Phata Rd","Pandurang Colony, Erandwane",18.503389,73.826116,Hostel,5.0,Gopal park
411058,"Urit Nagar, Warje",Pune,"FQWQ+XH8, Warje Tekadi,Mahatma Hill View, Service Rd","Urit Nagar, Warje",18.4974047,73.78895,Park,5.0,"Warje Tekadi,Mahatma Sunset view point"
411038,"Gananjay Society, Chaitanya Nagar, Kothrud",Pune,"Dinesh, 11, Gandhi Bhavan Rd","Gananjay Society, Chaitanya Nagar, Kothrud",18.4999733,73.80468499999999,Park,2.2789205496756173,Dinesh Dangi
411058,Warje,Pune,FRM3+WVR,Warje,18.4848677,73.8046435,Park,4.2,Nadbramha Society Park & PMC Jogging Track Warje
411027,"Prassana Colony, Pimple Saudagar","Pune, Pimpri-Chinchwad","Samyak Residency, Kokane Chowk, near New City Pride School","Prassana Colony, Pimple Saudagar",18.5986576,73.79112169999999,Hostel,2.8,RK (PG) Hostel- Girl's and Woman's
411017,"Mana-mandir Society, Pimple Saudagar",Pimpri-Chinchwad,"Rukhmini heights, jagtap dairy, sai chowk, near spot 18 mall Rahatni","Mana-mandir Society, Pimple Saudagar",18.5935217,73.7854674,Hostel,4.5,Sk pg
411027,"Sunshine Villas, Durgamata Colony, Pimple Saudagar",Pimpri-Chinchwad,Shivar Chowk,"Sunshine Villas, Durgamata Colony, Pimple Saudagar",18.5945761,73.78672159999999,Hostel,4.5,ATS PG
411017,"Sunshine Villas, Mana-mandir Society, Pimple Saudagar",Pimpri-Chinchwad,"Plot No 26D ,Manmandir Society","Sunshine Villas, Mana-mandir Society, Pimple Saudagar",18.5943306,73.7855369,Hostel,4.8,GVC PG Service (Female Only)
411057,"Vishal Nagar, Wakad","Pune, Pimpri-Chinchwad","Reherber villa, survey 28/5, samarth colony","Vishal Nagar, Wakad",18.5889385,73.78185839999999,Hostel,4.5,HappyNest Paying guests
411027,"Sunshine Villas, Rahatani","Pune, Pimpri-Chinchwad","Above Sambram Inn Hotel,Opp Kokane Maket,NearnSai Chowk,Jagtap Dairy,, Next To 5 Gardens Society, Pimple Saudagar, Pune","Sunshine Villas, Rahatani",18.595861,73.7833472,Hostel,3.9,Sai Sagar PG Appartments
411027,"Kavde Nagar, Pimple Saudagar","Pune, Pimpri-Chinchwad","Sr.N.7/8, Flat N. 201 Celebria Apartment, Leon Orbit Road Near Park Royale, Rahatni","Kavde Nagar, Pimple Saudagar",18.5988282,73.7844573,Hostel,3.4,Celebria Women's PG
411027,Pimple Saudagar,Pimpri-Chinchwad,"Rutugandh Bld , Near PK International School , New Ashoka Hotel ,BRT ROAD",Pimple Saudagar,18.5977985,73.79779429999999,Hostel,4.8,Silver Homebase Executive Girls PG
411027,"Vishal Nagar, Pimple Nilakh","Pune, Pimpri-Chinchwad","Gurukrupa Apartment Building Omkar Society, Aundh-Wakad Rd, near Apple Hospital","Vishal Nagar, Pimple Nilakh",18.5881483,73.780806,Hostel,3.6,Dolly's PG & Hostel
411027,"Mithila Nagari, Pimple Saudagar",Pimpri-Chinchwad,HRX3+H37,"Mithila Nagari, Pimple Saudagar",18.598907,73.80266569999999,Hostel,4.1,Paradise PG
411027,Pimple Nilakh,Pimpri-Chinchwad,"26/1/3/1 Sitai Complex,Vishal Nagar,Wakad road,Pune, 27",Pimple Nilakh,18.5876978,73.78281729999999,Hostel,4.1,Shree Samarth P.G.
411027,"Vishal Nagar, Pimple Nilakh","Pune, Pimpri-Chinchwad",Plot No 13 Laxman Niwas Someshwar Housing Society,"Vishal Nagar, Pimple Nilakh",18.58654,73.78364669999999,Hostel,3.6,Comfort Zone PG Services - Pune
411019,"Dwarkadheesh Gardens, Rahatani","Pune, Pimpri-Chinchwad","Sr No-19/4/2,Runwal Heritage, Wakad Road,Thergoan","Dwarkadheesh Gardens, Rahatani",18.59663,73.789706,Hostel,2.7,Reddy's Om Shiv Sai PG Services
411027,"Mithila Nagari, Pimple Saudagar","Pune, Pimpri-Chinchwad","Govind Garden Hotel, Mithila Nagari, Pimple Saudagar, Pimpri-Chinchwad","Mithila Nagari, Pimple Saudagar",18.5988976,73.8026028,Hostel,2.5,PUN685 Pimpri-Chinchwad
411027,"Nandanwan Society, Vishal Nagar, Pimple Saudagar",Pimpri-Chinchwad,"1, Jagtap Dairy Rd","Nandanwan Society, Vishal Nagar, Pimple Saudagar",18.578869,73.786279,Hostel,0.9661137766201111,Sharda Niketan Girls Hostel
411027,"Vishal Nagar, Pimple Nilakh",Pimpri-Chinchwad,"Building, Survey No. 28 Good lands pg service jasvand, Wakad Rd, near PMC Bank","Vishal Nagar, Pimple Nilakh",18.5886259,73.7814588,Hostel,3.8,Goodlands Luxury PG Services 3
411027,"Omkar Society, Pimple Nilakh",Pimpri-Chinchwad,"Vasant Pushpa, Vishal Nagar, Jagtap Dairy, Hinjawadi Rd, Opp. HDFC ATM","Omkar Society, Pimple Nilakh",18.588493,73.7833143,Hostel,3.2,Platinum PG Services
411027,"Vishal Nagar, Wakad","Pune, Pimpri-Chinchwad","Near akshat hotel Sr. NO. 26/1/3/1, SATHE CORNER OMKAR BUILDING Jagtap Dairy, Pimple Nilakh, River Road, aundh road","Vishal Nagar, Wakad",18.5877314,73.7833667,Hostel,3.6,Rest Inn P.G. Services
411027,"Sivar Garden, Pimple Saudagar",Pimpri-Chinchwad,"Late Nathubhau, 125/2/B199, Kate Colony Rd","Sivar Garden, Pimple Saudagar",18.5991997,73.8011405,Hostel,1.3310156535506552,Cloudnine Hospital Girls Hostel
411061,"Kashid Park, Kranti Nagar, Pimple Gurav","Pune, Pimpri-Chinchwad",near Nashik Phata Flyover,"Kashid Park, Kranti Nagar, Pimple Gurav",18.6029291,73.8168728,Hostel,5.0,Unique Ladies Hostel
411027,Pimple Saudagar,"Pune, Pimpri-Chinchwad","s, 119A, Kunal Icon Rd, near Kunal Icon",Pimple Saudagar,18.5942131,73.7898593,Restaurant,3.7,Collection O Hotel Saudagar
411027,Pimple Saudagar,"Pune, Pimpri-Chinchwad","2nd floor, Hotel Saudagar bar and restaurant, 119a, Kunal Icon Rd",Pimple Saudagar,18.5941831,73.78983509999999,Hotel,3.6,Hotel Saudagar Banquet Hall
411018,"Pimple Saudagar Gaon, Pimpri Colony",Pimpri-Chinchwad,"JR22+M77, Pimple Saudagar Rd, near Vishal Wadewale","Pimple Saudagar Gaon, Pimpri Colony",18.6016506,73.8006846,Restaurant,3.7,Hotel Pimple Saudagar
411027,"Jagtap Dairy, Pimple Nilakh",Pimpri-Chinchwad,"Plot No. 12, Parvati Niwas Shanti Niketan Society , Vishal Nagar","Jagtap Dairy, Pimple Nilakh",18.5907538,73.78483159999999,Tiffin,4.7,Matoshree Mess & Tiffin Services
411027,Pimple Saudagar,"Pcmc, Pimpri-Chinchwad",Kunal Icon Rd,Pimple Saudagar,18.5934084,73.79145869999999,Tiffin,4.7,Ghar ka Swad by Sumita
411027,"Kate Vasti Pimple Saudagar, Kunj Colony, Pimple Saudagar",Pimpri-Chinchwad,Flat No. 301 Amrita Colony Guru pimple navi sanghvi,"Kate Vasti Pimple Saudagar, Kunj Colony, Pimple Saudagar",18.5883085,73.8008224,Tiffin,2.959538071712477,annarpurna tiffin services
411017,"Ram Nagar, Rahatani","Pune, Pimpri-Chinchwad","Seven Star, Club Road, near Bhalero Colony","Ram Nagar, Rahatani",18.602328,73.7922779,Tiffin,5.0,Kaleshwari Prasann Tiffin Services
411027,"Siddhivinayak Ginger Society, Siddhivinayak Ginger, Pimple Saudagar","Pune, Pimpri-Chinchwad","Shop No 132, Siddhivinayak Vision Flora Mall, near Kunal Icon Road","Siddhivinayak Ginger Society, Siddhivinayak Ginger, Pimple Saudagar",18.5925832,73.7999021,Tiffin,4.9,Foodorko
411027,"Vishawshanti Colony, Pimple Saudagar",Pimpri-Chinchwad,"Shriniwas building, lane no 3, Vishwashanti Colony","Vishawshanti Colony, Pimple Saudagar",18.5963453,73.7992616,Tiffin,1.2164908636577692,Santosh Home Made Food Service
411027,"Deepmala Society, Pimple Saudagar","Pune, Pimpri-Chinchwad","BLOCK-D, D-105, Shiv Sai Ln","Deepmala Society, Pimple Saudagar",18.598271,73.7945069,Tiffin,2.014090976962006,Home Flavours
411027,Pimple Saudagar,"Pune, Pimpri-Chinchwad","SAI PEARL, society",Pimple Saudagar,18.5912553,73.79846429999999,Tiffin,4.6,Annapurna Tiffin Services
411027,"Defence Area, Pimple Saudagar","Pune, Pimpri-Chinchwad","Jhulelal Towers, B-103, near Govind garden Hotel","Defence Area, Pimple Saudagar",18.5951288,73.8083541,Tiffin,5.0,"Minakshi Food Services - ""Taste of Homemade Food"""
411045,"Omkar Society, Pimple Nilakh","Pune, Pimpri-Chinchwad",Rahul society,"Omkar Society, Pimple Nilakh",18.5893353,73.7814147,Tiffin,4.8,The mega kitchen
411017,"Rambagh Colony, Rahatani",Pimpri-Chinchwad,"BLOCK-A8, H-102, Kokane Chowk","Rambagh Colony, Rahatani",18.6007382,73.7899611,Tiffin,5.0,Home Made Foods
411027,Pimple Saudagar,"Pune, Pimpri-Chinchwad","A_2 Wing,shop No. 22, Dwarka Lords,Pimple Saudagar,pune-411 027",Pimple Saudagar,18.5946815,73.7887392,Pharmacy,4.0,Prince Medical
411027,"Roseland Residency, Pimple Saudagar","Pune, Pimpri-Chinchwad","HQWQ+38G, Kunal Icon Rd","Roseland Residency, Pimple Saudagar",18.595193,73.78834049999999,Pharmacy,4.0,Generic Medical Store Home Delivery
411027,"Roseland Residency, Pimple Saudagar",Pimpri-Chinchwad,"Vision Galleria Complex, Road","Roseland Residency, Pimple Saudagar",18.5937284,73.7925076,Pharmacy,3.2,HEALTH&HAPPINESS Medical
411027,Pimple Saudagar,"Pune, Pimpri-Chinchwad","Shop No.3&4, Ground Floor, Rajaveer Palace Wing-K, Kunal Icon Rd",Pimple Saudagar,18.5933608,73.7981459,Pharmacy,4.4,Apollo Pharmacy Pimple Saudagar
411027,"Society, Pimple Saudagar","Pune, Pimpri-Chinchwad","Shop No. 2, opposite Aakashganga Road","Society, Pimple Saudagar",18.5996224,73.7848164,Pharmacy,5.0,National Medical
411027,Pimple Saudagar,Pune,"1, S-19, Kunal Shopping Complex",Pimple Saudagar,18.5674122,73.7761356,Pharmacy,1.8458471992778795,Shree Sai Medical Store
411027,"Prassana Colony, Pimple Saudagar","Pune, Pimpri-Chinchwad","Shop No-2, Sayali Park, 5/3, Jagtap Dairy Road","Prassana Colony, Pimple Saudagar",18.600273,73.7934053,Pharmacy,5.0,RUDRAKSH MEDICAL & GENERAL STORES
411027,"Deepmala Society, Pimple Saudagar",Pimpri-Chinchwad,HQXR+6H7,"Deepmala Society, Pimple Saudagar",18.5980339,73.7914131,Pharmacy,5.0,Healing Touch Medical Store
411027,Pimple Saudagar,"Pune, Pimpri-Chinchwad",2,Pimple Saudagar,18.5933675,73.79800259999999,Pharmacy,5.0,Lalit Medical
411017,"Rambagh Colony, Pimple Saudagar","Pune, Pimpri-Chinchwad","Kokane Chowk, near hanuman super market","Rambagh Colony, Pimple Saudagar",18.5982506,73.7898824,Pharmacy,4.2,HANUMAN MEDICO
411027,Pimple Saudagar,Pimpri-Chinchwad,"Shop No. 1, Sai Angan Society",Pimple Saudagar,18.5941419,73.7914894,Pharmacy,4.4,Aaiji Medico
411027,Pimple Saudagar,Pimpri-Chinchwad,"Shop No 1, M. S. E. B Office, Kunal Icon, Shivar Garden Rd",Pimple Saudagar,18.5939887,73.7921154,Pharmacy,4.0,Dhanashree Medical
411027,Pimple Saudagar,"Pune, Pimpri-Chinchwad","6, Yash Sankul, S.NO.16/1/2, Shop no.1, Building. A",Pimple Saudagar,18.6001697,73.8051259,Pharmacy,4.7,JAGDAMBA MEDICAL
411027,Pimple Saudagar,"Pune, Pimpri-Chinchwad","krishna medical, opp. lotus hospital",Pimple Saudagar,18.5986763,73.79783479999999,Hospital,4.143164305828902,chemist
411027,Pimple Saudagar,"Pune, Pimpri-Chinchwad",6,Pimple Saudagar,18.5936404,73.7927745,Pharmacy,2.403467340354571,New Anand Medical & Surgical
411027,"Roseland Residency, Pimple Saudagar",Pimpri-Chinchwad,Kunal Icon Rd,"Roseland Residency, Pimple Saudagar",18.5932537,73.7956353,Pharmacy,2.7,Wellness Forever
411017,"Prassana Colony, Pimple Saudagar",Pimpri-Chinchwad,"SHOP NO.214 KG SAPPHIRE, Rahatani Rd, near RELIANCE DIGITAL","Prassana Colony, Pimple Saudagar",18.5998107,73.7927017,Pharmacy,0.549013963857713,SANJIVANI MEDICAL & LIFESTYLE
411027,"Mithila Nagari, Pimple Saudagar","saudgar, Pimpri-Chinchwad","Shop no.3 ganga park society, wing b,pimple saudagar,pune.411027 Pimple","Mithila Nagari, Pimple Saudagar",18.6008996,73.8031697,Pharmacy,4.8,AJIT MEDICAL & GENERAL STORE
411027,"Kunj Colony, Pimple Saudagar","Pune, Pimpri-Chinchwad","63/1, Pimple Saudagar Rd, Daffodils Housing Society, Kunj Colony, Pimple Saudagar Daffodils Housing Society, Kunj Colony, Pimple Saudagar Pimpri-Chinchwad","Kunj Colony, Pimple Saudagar",18.5882693,73.80205049999999,Pharmacy,4.2,Varad Medical
411027,"Kate Vasti Pimple Saudagar, Kunj Colony, Pimple Saudagar","Pune, Pimpri-Chinchwad","Shop No 3, Chouk, near Yevda","Kate Vasti Pimple Saudagar, Kunj Colony, Pimple Saudagar",18.5883085,73.8008224,Pharmacy,2.1731085137141006,Wellness 24 Pharmacy
411027,"Prime Square Society, Roseland Residency, Pimple Saudagar",Pimpri-Chinchwad,HQVV+FHC,"Prime Square Society, Roseland Residency, Pimple Saudagar",18.5936941,73.793892,Pharmacy,1.0,"HEALTH CARE MEDICAL & GENERAl STORE , CHEMIST & DRUGGIST"
411027,"Sai Nagar Park, Pimple Saudagar","Pune, Pimpri-Chinchwad","shop no.9, Shubham height, near Ganeesham Soc, Gold Gym,","Sai Nagar Park, Pimple Saudagar",18.5981744,73.8064739,Pharmacy,4.9,PRIDE MEDICO
411017,"Prassana Colony, Rahatani",Pimpri-Chinchwad,"Sayali Park, 1, Rahatani Rd","Prassana Colony, Rahatani",18.5998456,73.7928575,Pharmacy,5.0,Relief Chemist (Medical shop Rahatani Saudgar)
411027,Pimple Saudagar,Pimpri-Chinchwad,"Shop No. 5, Ground Floor, Sai Saheb, Shiv Sai Ln",Pimple Saudagar,18.5994858,73.7942594,Pharmacy,4.7,Global Medico
411027,"vishwa society, Pimple Saudagar","Pune, Pimpri-Chinchwad","Shop no.5&6, Shiv Sai Ln","vishwa society, Pimple Saudagar",18.5989274,73.79612019999999,Pharmacy,4.032351883116102,New lifecare chemist n genral store
411027,Pimple Saudagar,Pimpri-Chinchwad,HRV2+FQM,Pimple Saudagar,18.5937062,73.8019065,Pharmacy,3.0,Diamond Chemist
411027,Pimple Saudagar,"Pune, Pimpri-Chinchwad","sr. no. y 4, planet millenium,, 4",Pimple Saudagar,18.594238,73.802393,Pharmacy,5.0,PRINCE MEDICO
411028,"Kashid Park, Jawakar Nagar, Pimple Gurav","Pune, Pimpri-Chinchwad","Shop No 1, Satkrupa Classic Bldg","Kashid Park, Jawakar Nagar, Pimple Gurav",18.6001877,73.8175291,Pharmacy,3.1,MedPlus Pimple Gurav
411027,"Prassana Colony, Pimple Saudagar","Pune, Pimpri-Chinchwad","Shop No 2, Near Healing Touch Hospital, Jagtap Dairy Road, Rahatni","Prassana Colony, Pimple Saudagar",18.5993515,73.7923374,Pharmacy,5.0,Shree Swami Samarth Medical Store
411027,"Vishawshanti Colony, Pimple Saudagar","Pune, Pimpri-Chinchwad",Vishwashant colony no 3,"Vishawshanti Colony, Pimple Saudagar",18.5978237,73.799583,Pharmacy,4.8,Gurumauli Medical
411027,Pimple Saudagar,Pimpri-Chinchwad,"shop no. 2, shiva heights 2",Pimple Saudagar,18.5930485,73.7986269,Pharmacy,5.0,NEW SMART CHEMIST
411017,"Mithila Nagari, Pimple Saudagar","Pune, Pimpri-Chinchwad",Navale Residency A Building,"Mithila Nagari, Pimple Saudagar",18.6005156,73.80310639999999,Pharmacy,4.242154036900797,SWAMI MEDICAL
411027,"Sai Nagar Park, Pimple Saudagar","Pune, Pimpri-Chinchwad","Shop No.5, La Vida Loca","Sai Nagar Park, Pimple Saudagar",18.5966699,73.8059535,Pharmacy,5.0,Town Medico
411027,"Kate Vasti Pimple Saudagar, Kunj Colony, Pimple Saudagar","Pune, Pimpri-Chinchwad","Shop no.10, Sai Vision Complex, Kunal Icon Rd","Kate Vasti Pimple Saudagar, Kunj Colony, Pimple Saudagar",18.5924929,73.8018216,Pharmacy,4.2,Just Care Chemist and Druggist
411027,Pimple Saudagar,"Pune, Pimpri-Chinchwad","HQVV+95M, Near gold gym backside of govind garden",Pimple Saudagar,18.5934701,73.79291119999999,Pharmacy,1.9181562586597023,REAL CHEMIST
411027,"Mithila Nagari, Pimple Saudagar",Pimpri-Chinchwad,"HRX3+X38, Near Govind Garden","Mithila Nagari, Pimple Saudagar",18.599905,73.80271499999999,Pharmacy,1.969039004020889,Harish Medical
411027,Pimple Saudagar,"Pune, Pimpri-Chinchwad","Shop No 1, Rajaveer Palace, Phase 2, Kunal Icon Rd, near YES Bank",Pimple Saudagar,18.5931377,73.79854879999999,Pharmacy,4.2,Davaindia Generic Pharmacy
411017,"Prassana Colony, Pimple Saudagar",Pimpri-Chinchwad,"5/3, Sayali Park, Opposite Sindhu Park Society, Jagtap Dairy Road, Rahatani Road, Prassana Colony, Rahatani","Prassana Colony, Pimple Saudagar",18.5999519,73.7929967,Pharmacy,4.2,Satnaam Medical & General Stores
411027,Pimple Saudagar,Pimpri-Chinchwad,"HQVR+JQ9, Shivar Garden Rd",Pimple Saudagar,18.594049,73.7919903,Pharmacy,3.7,Dhanlakshmi Medicals
411027,"Phase 2, Deepmala Society, Pimple Saudagar","Pune, Pimpri-Chinchwad","177/1 2, Shiv Sai Ln","Phase 2, Deepmala Society, Pimple Saudagar",18.5987126,73.79578529999999,Pharmacy,4.4,Care Cosmetics And Chemist
411027,"Deepmala Society, Pimple Saudagar",Pimpri-Chinchwad,"HQXV+RGW, Vasant Ave","Deepmala Society, Pimple Saudagar",18.5996055,73.7938365,Pharmacy,4.3,Mediplus chemist and druggist
411027,Pimple Saudagar,"Pune, Pimpri-Chinchwad","Shop no 2, Shivsai Vishwa, Opp Challenger Public School, Siv, Shiv Sai Ln",Pimple Saudagar,18.598946,73.7960155,Pharmacy,3.3,SANGAM CHEMIST
411017,"Ashirwad Colony, Arvind Colony, Rahatani","Pune, Pimpri-Chinchwad","Shop No.2 bhahusaheb complex Siddharth Nagar Rahatani Near Buddha vihar, opp. Thalathi office","Ashirwad Colony, Arvind Colony, Rahatani",18.6020496,73.7946779,Pharmacy,3.3076582124421168,Bhawani Medical & General Stores
411017,"Dwarkadheesh Gardens, Rahatani","Pune, Pimpri-Chinchwad","Sr.no.6/1/a, Shop no.5, Highness, Kokane Chowk, Rahatni","Dwarkadheesh Gardens, Rahatani",18.598444,73.78840799999999,Pharmacy,4.3,Krishna Medical
411017,Pimple Saudagar,Pimpri-Chinchwad,"Shop no. 5 and 6 ground floor in 'j' wing SAI SQUARE , phase 1 survey no.65/1&65/2,village, municipal corporationTal.haveli",Pimple Saudagar,18.5936178,73.8022069,Pharmacy,2.8,Wellness Forever - Pimple Saudagar 2
411027,"Kate Vasti Pimple Saudagar, Kunj Colony, Pimple Saudagar",Pimpri-Chinchwad,"Shraddha Heritage B-wing, Roseland Residency, Road","Kate Vasti Pimple Saudagar, Kunj Colony, Pimple Saudagar",18.5925859,73.8035448,Pharmacy,3.8,Pulse Medico
411027,"Deepmala Society, Pimple Saudagar","Pune, Pimpri-Chinchwad","Shop no.7 sai saheb society, opo. Lotus hospital, society, near BLOCK-A","Deepmala Society, Pimple Saudagar",18.5989916,73.7940014,Pharmacy,5.0,Wellness chemist
411027,"Deepmala Society, Pimple Saudagar","Pune, Pimpri-Chinchwad","Shop No 6, BLOCK-A, opposite Ranka jewellers","Deepmala Society, Pimple Saudagar",18.5987672,73.7934958,Pharmacy,5.0,Care corner pharmacy
411027,"CQAE Area, Old Sangvi","Pune, Pimpri-Chinchwad","shop no 2,palm breeze society, s.no.68/69,pimple saudagar, pune.","CQAE Area, Old Sangvi",18.573435,73.80769699999999,Pharmacy,4.5,Diamond chemist
411027,"Rambagh Colony, Pimple Saudagar","Pune, Pimpri-Chinchwad","Opp Tushar Garden, Phase 2, Near Hotel Govind Garden, Pimple Saudagar Pune, 41102","Rambagh Colony, Pimple Saudagar",18.6005549,73.79035569999999,Pharmacy,4.530750171167053,PAVAN MEDICAL AND GENERAL STORE
411027,"Mithila Nagari, Pimple Saudagar","Pune, Pimpri-Chinchwad",Seven Star Ln,"Mithila Nagari, Pimple Saudagar",18.5980763,73.8044097,Pharmacy,4.8,Sai Samarth Medicals
411027,"Mithila Nagari, Pimple Saudagar",Pimpri-Chinchwad,"Ram Vila, Govind Yashada Chowk, Nr. SBI, Pimple Saudagar","Mithila Nagari, Pimple Saudagar",18.59811,73.802724,Pharmacy,3.0965415159465466,Aditya Medico
411017,"Sunshine Villas, Dwarkadheesh Gardens, Rahatani","Pune, Pimpri-Chinchwad","Rainbow Plaza, West side on the Ground Floor Showroom No.22, Shivar Garden Rd","Sunshine Villas, Dwarkadheesh Gardens, Rahatani",18.5956257,73.78811379999999,Pharmacy,2.1,"Wellness Forever - Shivar Garden, Rahatani, Pune"
411017,"Ashirwad Colony, Arvind Colony, Pimple Saudagar","Pune, Pimpri-Chinchwad","JQ2W+V42, Bhalerao Corner, Jagtap Dairy, Rahatni Road, Arvind Colony, Rahatani","Ashirwad Colony, Arvind Colony, Pimple Saudagar",18.6021304,73.7952622,Pharmacy,5.0,SHREE KRISHNA MEDICAL AND GENERAL STORE
411027,Pimple Saudagar,"Pune, Pimpri-Chinchwad","Shop No 6, Shrushti Spaces Treasure Island Building, Hotel Goving Garden Rd",Pimple Saudagar,18.5942179,73.8019559,Pharmacy,5.0,Vidisha Pharma
411027,"Vishal Nagar, Pimple Nilakh","Pune, Pimpri-Chinchwad","Shop no. 2, Sanjyot building, Aundh-Wakad Rd, opp. to Arvind wines","Vishal Nagar, Pimple Nilakh",18.5880627,73.7822432,Pharmacy,5.0,ANAND MEDICAL
411027,"Pimple Saudagar Gaon, Pimple Saudagar",Pimpri-Chinchwad,"JR22+4WQ, Takshashila Nagar","Pimple Saudagar Gaon, Pimple Saudagar",18.600331,73.802347,Pharmacy,0.9469755182069894,Tanushree Medical
411027,"Kate Vasti Pimple Saudagar, Kunj Colony, Pimple Saudagar","Pune, Pimpri-Chinchwad","Shop no.01 ,sai square, pimple sudagar., near govind garden hotel","Kate Vasti Pimple Saudagar, Kunj Colony, Pimple Saudagar",18.588309,73.8008224,Pharmacy,4.098298336669949,Unique Medico
411027,"Rahatani Gaon, Pawana Nagar, Pimple Saudagar","Pune, Pimpri-Chinchwad","Shop No 3,Jay Jayanti Apartment","Rahatani Gaon, Pawana Nagar, Pimple Saudagar",18.602465,73.79772559999999,Pharmacy,0.5234684844385301,Gurudatta Medical
411027,"Siddhivinayak Ginger Society, Siddhivinayak Ginger, Pimple Saudagar","Pune, Pimpri-Chinchwad","Shop No 35, Vision Flora","Siddhivinayak Ginger Society, Siddhivinayak Ginger, Pimple Saudagar",18.592821,73.80008649999999,Pharmacy,5.0,MEDIHALL24
411027,"Vishal Nagar, Pimple Nilakh","Pune, Pimpri-Chinchwad","near, Shop No 1 & 2, Survey No 26, Jagtap Dairy Rd","Vishal Nagar, Pimple Nilakh",18.5885997,73.7819152,Pharmacy,3.6,Apollo Pharmacy Vishal Nagar
411027,"Kate Vasti Pimple Saudagar, Kunj Colony, Pimple Saudagar",Pimpri-Chinchwad,"Shop no 23, Sai VIsion, Near Govind Garden Restaurant,","Kate Vasti Pimple Saudagar, Kunj Colony, Pimple Saudagar",18.592381,73.80170799999999,Pharmacy,2.6851588042997787,Shakti Medico House
411017,"Dwarkadheesh Gardens, Rahatani",Pimpri-Chinchwad,"Shop No 4, Ganesh Arcade, Kokane Chowk","Dwarkadheesh Gardens, Rahatani",18.59776,73.7897359,Pharmacy,3.231869859527627,SHLOK MEDICAL STORE
411027,Pimple Saudagar,Pimpri-Chinchwad,"HQVX+6F7, Shiva Heights Phase II, Roseland Residency Rd",Pimple Saudagar,18.5930331,73.7986646,Pharmacy,3.0,Dhanashri Medicals
411027,"Sai Nagar Park, Pimple Saudagar",Pimpri-Chinchwad,"Shop No, 3, Sai Shubham Society Rd, near rajlaxmi super market","Sai Nagar Park, Pimple Saudagar",18.5976518,73.8060991,Pharmacy,4.0,MY Chemist And Druggist
411027,Pimple Saudagar,Pimpri-Chinchwad,Shop 1,Pimple Saudagar,18.5950033,73.8021471,Pharmacy,2.085542165382328,LIFECARE CHEMIST
411027,Pimple Saudagar,Pimpri-Chinchwad,313 Pcmc Gallaria Mall,Pimple Saudagar,18.5936712,73.79283819999999,Pharmacy,3.6424425899604906,GALAXY 9 MEDICO
411027,"Mithila Nagari, Pimple Saudagar","Pune, Pimpri-Chinchwad",Shop No 1,"Mithila Nagari, Pimple Saudagar",18.5997054,73.8027676,Pharmacy,2.2606607737412068,Wellness Forever Chemists & Lifestyle Store
411027,"Ganeesham Phase 2, Sai Nagar Park, Pimple Saudagar","Pune, Pimpri-Chinchwad","Shop No. 5, 1st floor","Ganeesham Phase 2, Sai Nagar Park, Pimple Saudagar",18.5967137,73.8046447,Pharmacy,4.0,Earth & Ether Medico
411027,"Shri Ram Colony, Pimple Saudagar",Pimpri-Chinchwad,JQ2X+8RF,"Shri Ram Colony, Pimple Saudagar",18.600824,73.799539,Pharmacy,5.0,Shivam Medical and General Stores
411027,Pimple Saudagar,Pimpri-Chinchwad,"B4, Pimple Saudagar Rd",Pimple Saudagar,18.5951917,73.8028789,Pharmacy,1.0,Pavan Medicals
411027,"Vishal Nagar, Pimple Nilakh","Pune, Pimpri-Chinchwad","Plot No.1366, Shop, H-134, 26, Wakad Rd","Vishal Nagar, Pimple Nilakh",18.5885307,73.785094,Pharmacy,3.0,MedPlus Vishal Nagar
411027,Pimple Saudagar,"Pune, Pimpri-Chinchwad","16, Vision Galleria, Kunal Icon Rd",Pimple Saudagar,18.5935887,73.7926916,Clinic,3.4,Ruby Hall Clinic PCMC (Pimple Saudagar)
411027,Pimple Saudagar,Pimpri-Chinchwad,"2nd Floor, Solaris Gym Building, Kunal Icon Rd, opposite Star Bazaar",Pimple Saudagar,18.5935788,73.7932138,Clinic,4.8,Vitalife Clinic Pimple Saudagar - Multispecialty Clinic | Pathology Lab | Sonography Centre
411027,Pimple Saudagar,"Pune, Pimpri-Chinchwad","No.213, 2nd Floor, Vision Galleria, Next To Kunal Ikon, Roseland Residency Road, Pimple Saudagar",Pimple Saudagar,18.5936866,73.79267209999999,Clinic,2.7,Wellness Speciality Clinic
411027,"Deepmala Society, Pimple Saudagar","Pune, Pimpri-Chinchwad","Dwarka Sai Wonders, Commercial Complex Survey no 173, Shiv Sai Road","Deepmala Society, Pimple Saudagar",18.5990631,73.7943064,Hospital,3.3,Lotus Multispeciality Hospital
411017,"Prassana Colony, Pimple Saudagar","Pune, Pimpri-Chinchwad","Office 204B, 2nd floor, Royal Tranquil, Complex, Kokane Chowk","Prassana Colony, Pimple Saudagar",18.598052,73.79098309999999,Clinic,4.7,Aura Skin & Laser Clinic - Skin Specialist in Pimple Saudagar
411027,Pimple Saudagar,"Pune, Pimpri-Chinchwad","Office No: 613, Fortuna Business Center, Shivar Chowk, opp. McDonald's",Pimple Saudagar,18.5959573,73.7894243,Clinic,4.5,Gunjan Skin Clinic Pimple Saudagar
411027,Pimple Saudagar,"Pune, Pimpri-Chinchwad","Shop no. 164, Vision 9 Mall",Pimple Saudagar,18.5940432,73.7930482,Hospital,4.9,"Dr. Geetanjali Thokal | Best Ayurvedic Doctor in Pune, Pimple Saudagar, PCMC"
411027,Pimple Saudagar,"Pune, Pimpri-Chinchwad","Vision Galleria, 216, 2nd Floor, Near, Kunal Icon Rd",Pimple Saudagar,18.5935888,73.79269169999999,Clinic,4.3,Rhythm Maternity Hospital
411017,"Prassana Colony, Pimple Saudagar","Pune, Pimpri-Chinchwad","203, Royal Tranquil, Kokane Chowk, opp. Deepmala Society, above Chitalebandhu Mithaiwale","Prassana Colony, Pimple Saudagar",18.5981127,73.79079949999999,Clinic,3.9,Aditya Birla Health Box Multispeciality Clinic & Diagnostic Center
411027,Pimple Saudagar,"Pune, Pimpri-Chinchwad",5,Pimple Saudagar,18.5991547,73.7953436,Clinic,2.5846418508994082,Blood Clinic
411017,"Dwarkadheesh Gardens, Pimple Saudagar","Pune, Pimpri-Chinchwad","Ground floor, Shree Ganesh Ace Arcade, Kokane Chowk, opposite MIRCHANDANI PALMS","Dwarkadheesh Gardens, Pimple Saudagar",18.5982902,73.7887688,Clinic,4.9,"Osteon Orthopedic Hospital,Pimple Saudagar | Best Digital XRay,Joint/Knee/Hip,Orthopedic Hospital in Pimple Saudagar"
411027,Pimple Saudagar,"Pune, Pimpri-Chinchwad","Ganadhish Empire, Kalewadi - Rahatani Rd, near Nana Kate's Office",Pimple Saudagar,18.6020527,73.7968277,Clinic,4.2,Shatayu Polyclinic - Best Gynaecological | Paediatrician | Orthopedic Specialist In Pimple Saudagar Pune
411027,Pimple Saudagar,"Pimpri-Chinchwad, Pune","Commercial Building, 410 , 4Th Floor , Rose Icon, Kunal Icon Rd, near IFB, above RBL bank",Pimple Saudagar,18.5933675,73.7990642,Hospital,4.9,"INDU WELLNESS PILES SPECIALITY LASER HOSPITAL (fissure, fistula)PCMC Pimple saudagar Pune"
411027,Pimple Saudagar,Pimpri-Chinchwad,"Vision 9 Mall, Shop 126-127, Kunal Icon Rd",Pimple Saudagar,18.5941803,73.7931834,Clinic,4.8,The Skin Doctors - Skin Specialist in Pimple Saudagar
411027,Pimple Saudagar,"Pune, Pimpri-Chinchwad","2nd Floor, Solaris Gym Building, Kunal Icon Rd, opposite Star Bazaar",Pimple Saudagar,18.5935788,73.7932138,Clinic,1.2881700910180038,Vitalife Clinic
411017,"Dwarkadheesh Gardens, Rahatani","Pune, Pimpri-Chinchwad","2nd Floor 209 Shree Ganesh Ace Arcade, Kokane Chowk, opposite MIRCHANDANI PALMS","Dwarkadheesh Gardens, Rahatani",18.5982231,73.7887089,Clinic,4.9,Galaxy Dental Clinic Rahatani Pimple Saudagar
411027,Pimple Saudagar,"Pune, Pimpri-Chinchwad","Shop 1C, 1st Flr, Kunjir, Shyama Prestige, opposite Vijay Sales",Pimple Saudagar,18.6013288,73.7947686,Hospital,4.6,Pristyn Care
411027,"Prassana Colony, Pimple Saudagar","Pune, Pimpri-Chinchwad","1001, First floor, Bhoomi Allium, Kokane Chowk, next to Ranka Jewellers","Prassana Colony, Pimple Saudagar",18.5988254,73.7917405,Clinic,4.9,"ADVANCED AESTHETICS - Hair/Skin Treatment Clinic, PRP/Dandruff Treatment, Weight Loss Treatment In Pimple Saudagar"
411027,Pimple Saudagar,"Pune, Pimpri-Chinchwad","Vision 9 Mall, Shop No.170, 1st Floor, Kunal Icon Rd",Pimple Saudagar,18.5939825,73.7929377,Clinic,4.9,"DENTALK Speciality Dental Clinic, Dentist in Pimple Saudagar -Dr. Samiksha Jarde, MDS (Gold Medalist)"
411027,Pimple Saudagar,"Pune, Pimpri-Chinchwad","Office No 308 Fortuna Business Center, Shivar Chowk, Pimple Saudagar",Pimple Saudagar,18.595321,73.78864399999999,Hospital,4.4,Panacea Medical Center
411027,"Ganeesham Phase 2, Sai Nagar Park, Pimple Saudagar","Pune, Pimpri-Chinchwad","D-15, Nashik Phata Road","Ganeesham Phase 2, Sai Nagar Park, Pimple Saudagar",18.5970701,73.8040451,Hospital,4.9,DTH Clinic
411017,"Dwarkadheesh Gardens, Rahatani","Pune, Pimpri-Chinchwad","Shop No 14, Kokane Chowk","Dwarkadheesh Gardens, Rahatani",18.5974087,73.7904021,Hospital,3.0281671198665547,Pushp Clinic
411027,Pimple Saudagar,"Pune, Pimpri-Chinchwad","Fortuna, Off No. 309, Third Floor, Opp. MacDonalds Shivar Chowk",Pimple Saudagar,18.5958298,73.7891642,Clinic,4.9,Dr. Yadav's Smile Dental Clinic | Dental Clinic | Dentist in Pimple Saudagar
411027,"Deepmala Society, Pimple Saudagar","Pune, Pimpri-Chinchwad","Office No. 608, Fortuna complex, above Hotel Radhakrishna, Rahatani Road, Kokane Chowk","Deepmala Society, Pimple Saudagar",18.5958007,73.7891229,Clinic,4.7,Healthmate Homeopathy Clinic
411027,Pimple Saudagar,"Pune, Pimpri-Chinchwad","number 4, Y block, Roseland Residency Rd",Pimple Saudagar,18.594238,73.802393,Clinic,0.0010082998465582582,Mother care clinic pimple Saudagar
411027,"Sai Nagar Park, Pimple Saudagar","Pune, Pimpri-Chinchwad","2nd Floor, Ganesham D Commercial Complex, near Govind Garden","Sai Nagar Park, Pimple Saudagar",18.5970565,73.8035148,Clinic,5.0,"Dr Pritam Sulakhe-Gynecologist Near Me | Best IVF Specialist,IVF Doctor,Gynecologist in Pimple Saudagar,Pune"
411027,"Rambagh Colony, Pimple Saudagar",Pimpri-Chinchwad,"Ground Floor, A-Wing, Dwarka Sun Crest,","Rambagh Colony, Pimple Saudagar",18.5985542,73.78992769999999,Pharmacy,3.1,Healthspring Pimple Saudagar
411027,Pimple Saudagar,"Pune, Pimpri-Chinchwad","S-20, Kunal Icon Shopping Complex",Pimple Saudagar,18.5986763,73.79783479999999,Clinic,0.9901903731021638,Dr Khanna's Multispeciality Clinic And Diagnostic Center
411027,Pimple Saudagar,"Pune, Pimpri-Chinchwad","200 B, Second Floor, Prime Square Complex, Pimple Saudagar",Pimple Saudagar,18.5934701,73.79291119999999,Hospital,5.0,Dr. Mrs kiran sharma
411027,"Roseland Residency, Pimple Saudagar","Pune, Pimpri-Chinchwad","Office no 203 BPrime Square Commercial Complex Opp. Datta Mandir, Kunal Icon Road Near Shivar Chowk, Pimple Saudagar","Roseland Residency, Pimple Saudagar",18.5930547,73.7943962,Clinic,1.0,Dr. Chavan's Homeopathic Clinic
411027,"Sai Nagar Park, Pimple Saudagar","Pune, Pimpri-Chinchwad","Row House No1, Sai Orchards Cooperative Housing Soc, near Govind Garden","Sai Nagar Park, Pimple Saudagar",18.5955787,73.803096,Clinic,4.8,Pranav Ayurveda Panchakarma Clinic | Best Ayurvedic Doctor in Pimple Saudagar PCMC Pune | Skin Hair PCOD Arthitis Joint Pain
411027,"Siddhivinayak Ginger Society, Pimple Saudagar","Pune, Pimpri-Chinchwad","Shop No. 32, Vision Flora, Kunal Icon Rd, opp. PCMC Ground","Siddhivinayak Ginger Society, Pimple Saudagar",18.5929612,73.80042929999999,Clinic,5.0,D
411027,Pimple Saudagar,"Pune, Pimpri-Chinchwad","Vision Galleria, 2nd Floor, Kunal Icon Rd",Pimple Saudagar,18.5936605,73.7928902,Clinic,5.0,Dr Dnyaneshwar Patil MDS Endodontist
411027,"Prime Square Society, Pimple Saudagar","Pune, Pimpri-Chinchwad","Office no. 204, 2nd Floor Prime Square Building, opp. Dattaraj Mandir, above Federal Bank","Prime Square Society, Pimple Saudagar",18.5941469,73.7938817,Clinic,4.7,Gynecologist in Pimple Saudagar | Dr Bharati Hiremath | PCOS Treatment | Painless delivery
411027,"Ganeesham Phase 2, Sai Nagar Park, Pimple Saudagar","Pune, Pimpri-Chinchwad","D Wing, Shop no.10","Ganeesham Phase 2, Sai Nagar Park, Pimple Saudagar",18.5973365,73.80393269999999,Hospital,4.9,"Family Weight & Gynaec Clinic - Best Gynecologist-obstetrician in Pimple Saudagar, Weight Loss, Laparoscopy, and PCOD Care."
411017,"Prassana Colony, Pimple Saudagar","Pune, Pimpri-Chinchwad","Nisarg Women Healthcare, A-211, GK Sapphire, Rahatani Rd","Prassana Colony, Pimple Saudagar",18.5998364,73.7928128,Clinic,4.2,Nisarg Women Healthcare
411027,"Deepmala Society, Pimple Saudagar",Pimpri-Chinchwad,"Healthwell clinic Shop no 4 Vasant avenue, Shiv Sai Ln","Deepmala Society, Pimple Saudagar",18.5981881,73.7932819,Clinic,4.9,Healthwell Clinic
411027,Pimple Saudagar,"Pune, Pimpri-Chinchwad","Shop no 263, Vision 9 mall, Kunal Icon Rd",Pimple Saudagar,18.5941395,73.7932636,Clinic,5.0,Skin Clinic 360 (Dr. Rashmi Gujalwar Skin Specialist)
411027,Pimple Saudagar,"Pune, Pimpri-Chinchwad","2nd Floor, Pro Dental Care, Vision Galleria, Kunal Icon Rd",Pimple Saudagar,18.5936812,73.7925515,Clinic,4.9,Pro Dental Care
411017,"Sunshine Villas, Shivar Garden Chowk, Pimple Saudagar","Pune, Pimpri-Chinchwad","Rainbow Plaza, 510, 5th Flr, Rahatani Rd","Sunshine Villas, Shivar Garden Chowk, Pimple Saudagar",18.596099,73.78837299999999,Hospital,4.5884196153745815,Practo Care Surgeries
411027,"Prime Square Society, Pimple Saudagar","Pune, Pimpri-Chinchwad","205, Prime Square Complex, Kunal Icon Rd, opposite Dattaraj Mandir","Prime Square Society, Pimple Saudagar",18.5940516,73.7939104,Clinic,4.6,Icon Clinic Heart & Eye
411027,"Dwarkadheesh Gardens, Pimple Saudagar","Pune, Pimpri-Chinchwad",shree ganesh arcade,"Dwarkadheesh Gardens, Pimple Saudagar",18.5981127,73.7887116,Hospital,5.0,"Dr. Harshraj Deshmukh - Orthopedic doctor in Pimple Saudagar, Orthopedic surgeon in Pimple saudagar, Bone doctor in Pimple saudagar, Knee & Hip replacement surgeon in pimple saudagar."
411027,"Prime Square Society, Pimple Saudagar","Pune, Pimpri-Chinchwad","shop no.104,prime square, oppo.dutta mandir near shubhashree woods,, pimple saudagar","Prime Square Society, Pimple Saudagar",18.59391,73.79393,Clinic,0.38348971171046686,RAKSHAYU clinic
411027,"Commercial, Pimple Saudagar","Pune, Pimpri-Chinchwad","Flat No, 207, Rose Icon Society Rd","Commercial, Pimple Saudagar",18.5969152,73.8023872,Clinic,2.3478485495061308,TUMMY CLINIC
411027,"Empire Estate, Phase 1, Pimple Saudagar",Pimpri-Chinchwad,"HairMD, Unit No. 403/404, 4th floor, Ganeesham ll Govind Yashada Chowk, Pune, Nashik Hwy","Empire Estate, Phase 1, Pimple Saudagar",18.5971921,73.8048148,Clinic,4.8,HairMD - Hair Loss Treatment & Transplant Clinic - Pimple Saudagar
411027,Pimple Saudagar,"Pune, Pimpri-Chinchwad","3rd floor, Vision Galleria Complex, next to KUNAL ICON CO-OPERATIVE HOUSING SOCIETY, opposite Vision 9 Mall",Pimple Saudagar,18.5937567,73.7927393,Clinic,4.4,Galaxy Hospital - Dr.Pratibha Chavan
411027,Pimple Saudagar,"Pune, Pimpri-Chinchwad","Rose Icon Amenity Building, Office No 110,1st Floor, Kunal Icon Rd, opposite Vijaya Bank",Pimple Saudagar,18.5935059,73.799256,Clinic,4.7,"Anahat Dental Care - Best Dental Clinic, Female Dentist, Root Canal Treatment, Dental Implant Doctor in Pimple Saudagar, PCMC"
411027,"Shri Ram Colony, Pimple Saudagar","Pune, Pimpri-Chinchwad","Bina Park, opp. Indian oil Pump, near Govind Garden Chowk","Shri Ram Colony, Pimple Saudagar",18.6002378,73.8020006,Clinic,4.9,"GoBest Dentist, Pimple Saudagar"
411027,Pimple Saudagar,"Pune, Pimpri-Chinchwad","Shop no 128, Vision 9 Mall, Kunal Icon Rd",Pimple Saudagar,18.5946272,73.7932431,Clinic,4.9,"Confi-dental Clinic- Laser, Hair & Skin Clinic|Acne,Chemical Peel,Hydrafacial | Botox| Hair Transplant in Pimpri Chinchwad"
411027,"Vishawshanti Colony, Pimple Saudagar","Pune, Pimpri-Chinchwad","Blue Sapphire Business Park, nr. Govind Yashada Chowk","Vishawshanti Colony, Pimple Saudagar",18.5975985,73.80114999999999,Clinic,4.7,Cloudnine Hospital- Pimple Saudagar
411027,"Sunshine Villas, Dwarkadheesh Gardens, Pimple Saudagar","Pune, Pimpri-Chinchwad","Rainbow Plaza, 209B, Shivar Chowk","Sunshine Villas, Dwarkadheesh Gardens, Pimple Saudagar",18.5959889,73.7883849,Pharmacy,4.7,"HairDoc Trichology Expert, Hair Clinic"
411027,"Chowk, Pimple Saudagar","Pune, Pimpri-Chinchwad","Yashashree Orthopedic and Physiotherapy Centre 410, 4th Floor, Fortuna, Shivar Garden Rd, above Radha Krishna Restaurant and Front of Macd","Chowk, Pimple Saudagar",18.5957797,73.78911389999999,Clinic,5.0,"Dr. Vyas - Physiotherapist in Pimple Saudagar, Best Physiotherapist in Pimple Saudagar, Physiotherapists treatment"
411027,"Dwarkadheesh Gardens, Pimple Saudagar","Pune, Pimpri-Chinchwad","201, Veer Arcade Kokane Chowk next to Subway opp. Reliance Mall","Dwarkadheesh Gardens, Pimple Saudagar",18.597346,73.7905,Clinic,4.5,Galaxy Dental And Orthopedic Centre
411017,"CID Colony, Pimple Saudagar",Pimpri-Chinchwad,"318 & 319, Shree Ganesh Ace Arcade S.No 6/1B, Chowk, Rahatani Rd, opposite MIRCHANDANI PALMS, near Aakashganga Road","CID Colony, Pimple Saudagar",18.6002363,73.78690569999999,Clinic,5.0,Dr Sachin Rohani-Ayurvedic Doctor I Psoriasis Treatment in Pimple Saudagar
411027,"Deepmala Society, Pimple Saudagar","Pune, Pimpri-Chinchwad","survey no.173, Dwarka Sai Wonders, Commercial Complex, Shiv Sai Ln","Deepmala Society, Pimple Saudagar",18.5990619,73.7943055,Clinic,5.0,"Lotus Family Dental Care, Pimple saudagar"
411027,Pimple Saudagar,"Pune, Pimpri-Chinchwad","Flat no 207,Second floor, Rose icon commercial, Kunal Icon Rd",Pimple Saudagar,18.5951178,73.8003664,Hospital,0.18319432609397834,Modern Homeopathy Pimple Saudagar Pune
411027,Pimple Saudagar,"Pune, Pimpri-Chinchwad","Vision Galleria, Shop No 6- 1st. Flr. S.No- 27-28, nr. Kunal Icon Rd",Pimple Saudagar,18.5935887,73.7926916,Clinic,4.3,Sabkadentist - Pimple Saudagar
411027,Pimple Saudagar,"Pune, Pimpri-Chinchwad","shop no 20 ground floor, Lifeville, PK chowk",Pimple Saudagar,18.5977626,73.7975846,Clinic,4.6,"Samarpan Skin,Hair and Laser Clinic"
411027,"Sai Nagar Park, Pimple Saudagar","Pune, Pimpri-Chinchwad","Unit No 10 2nd Floor, Ganesham D Commercial Complex, Nucleus fertility research and gynaec centre, Govind Garden Chowk, near Hotel","Sai Nagar Park, Pimple Saudagar",18.5970444,73.8035723,Clinic,5.0,"Nucleus Fertility & IVF Clinic-Best Gynecologist in Pimple Saudagar | IVF Clinic,IVF Centre in Pimple Saudagar,Pune"
411027,Pimple Saudagar,"Pune, Pimpri-Chinchwad","Shop No 3, A Birla School, near Shloka",Pimple Saudagar,18.5986763,73.79783479999999,Clinic,1.1737128124986755,Eshiwar Clinic
411027,"Sai Nagar Park, Pimple Gurav","Pune, Pimpri-Chinchwad","Near Golds Gym, Govind Yashada Chowk Pimple Saudagar Pimpri Chinchwad","Sai Nagar Park, Pimple Gurav",18.5972938,73.805061,Clinic,4.7,Clear Skin - Laser Skin and Hair Clinic - Pimple Saudagar
411027,"Deepmala Society, Pimple Saudagar","Pune, Pimpri-Chinchwad","Lotus Hospital, Sai Wonders Commercial Survey no 173, Shiv Sai Road,, Pimple Saudagar, Pune, Maharashtra 411027","Deepmala Society, Pimple Saudagar",18.5991148,73.7944239,Hospital,5.0,Homoeopathy Doctor in Pimple Saudagar
411027,"Ganeesham Phase 2, Sai Nagar Park, Pimple Saudagar","Pune, Pimpri-Chinchwad","At Sanjivani Polyclinic, 3 rd Floor/302, Ganeshyam E Commercial Complex, near Gold Gym Building","Ganeesham Phase 2, Sai Nagar Park, Pimple Saudagar",18.5965792,73.80376249999999,Clinic,4.9,YASHAAYU99 Ayurveda Wellbeing Center | Best Ayurvedic Doctor In Pimple Saudagar | PCMC | Pimpri Chinchwad
411027,Pimple Saudagar,"Pune, Pimpri-Chinchwad","Vitalife clinic, Kunal Icon Rd",Pimple Saudagar,18.5943499,73.7895915,Hospital,4.8,Dr. Pallav Bhatia. Best Spine Surgeon Pimple Saudagar| Orthopedic Doctor Saudagar Orthopedic Surgeon in Pimple Saudagar
411027,"Mithila Nagari, Pimple Saudagar",Pimpri-Chinchwad,Shop No 2,"Mithila Nagari, Pimple Saudagar",18.6005465,73.8035654,Clinic,5.0,Samarth Clinic
411027,"Prassana Colony, Pimple Saudagar",Pimpri-Chinchwad,"Avenue Plaza, 201, Rahatani Rd, above Reliance digital","Prassana Colony, Pimple Saudagar",18.5996576,73.7924833,Clinic,5.0,"Asian Spine and Pain Centre, Pimple Saudagar | Dr. Jagdish Patill | Spine and Joints Clinic | Branch 2"
411027,Pimple Saudagar,"Pune, Pimpri-Chinchwad","4th floor, 409, ROSE ICON Commercial Complex, above RBL Bank",Pimple Saudagar,18.593196,73.7990892,Clinic,5.0,"Bonocare Physiotherapy Clinic , Dr. Shubha Bhatnagar , Best Physiotherapist in Pimple Saudagar"
411027,Pimple Saudagar,"Pune, Pimpri-Chinchwad","Dr Shilpi Vijay, Vighnharta hospital, near Govind Garden",Pimple Saudagar,18.595015,73.8021488,Clinic,5.0,Physiotherapy Clinic And Rehab Centre|Pimple Saudagar|Physiotherapist
411027,Pimple Saudagar,"Pune, Pimpri-Chinchwad","Vision 9 Shopping Mall, Kunal Icon Rd",Pimple Saudagar,18.5941294,73.79323839999999,Clinic,4.9,Dr Pooja Nagdev - Dermatologist in Pimple Saudagar
411027,"Ganeesham D, Sai Nagar Park, Pimple Saudagar","Pune, Pimpri-Chinchwad","Shop No 3, BRTS Road, near Govind Yashada Chowk, behind Govind Garden Restaurant","Ganeesham D, Sai Nagar Park, Pimple Saudagar",18.5970833,73.8042889,Hospital,4.6,Apollo Diagnostics - Pimple Saudagar
411027,"Vishawshanti Colony, Pimple Saudagar","Pune, Pimpri-Chinchwad","Govind Garden Chowk, ONP Leela Hospital, BRT Road","Vishawshanti Colony, Pimple Saudagar",18.5976899,73.80046999999999,Hospital,5.0,Dr. Amita Phadnis - ONP Leela Hospital
411027,Pimple Saudagar,"Pune, Pimpri-Chinchwad","4th Floor, Shivar Chowk, FORTUNA' 410, above Radha Krishna Restaurant",Pimple Saudagar,18.5958605,73.7892272,Clinic,4.5,Dr. zope's orthopedic and physiotherapy center
411027,Pimple Saudagar,"Pune, Pimpri-Chinchwad",Shop No 24,Pimple Saudagar,18.5986763,73.79783479999999,Clinic,4.035291361151151,Healthy Buds
411027,Pimple Saudagar,Pimpri-Chinchwad,"Flat No. 18, 5th Floor, Jagtap Dairy, Shyama Prestige, Kunjir, Rahatani Rd, opp. Vijay Sales",Pimple Saudagar,18.6012451,73.7948202,Clinic,4.9,"Dr Sangeeta's Skin Clinic, Best Skin & Hair Clinic in Pimple Saudagar Rahatani"
411027,Pimple Saudagar,"Pune, Pimpri-Chinchwad","Office No. 413, Fortuna Complex, Opp. MacDonalds, Shivar Chowk,, Above RadhaKrishna Hotel, Rahatni Road, Pimple Saudagar",Pimple Saudagar,18.596216,73.78936999999999,Hospital,4.1,Miracle Touch Cosmetic Surgery and Laser center
411017,"Dwarkadheesh Gardens, Pimple Saudagar","Pune, Pimpri-Chinchwad","216 Shree Ace Ganesh Arcade, Opp Mirchandani Palms, Kokane Chauk, Rahatani","Dwarkadheesh Gardens, Pimple Saudagar",18.5982864,73.7887877,Clinic,4.8,Dr KALE CLINIC PATHLAB Diagnostic centre
411027,Pimple Saudagar,"Pune, Pimpri-Chinchwad",Office # 408. Fortuna Complex. Above Radha Krishna Restaurant Shivar Chowk,Pimple Saudagar,18.5958757,73.7891965,Clinic,4.3,"Skinhance - Skin, Hair & Laser Clinic"
411027,"Sai Nagar Park, Pimple Saudagar","Pune, Pimpri-Chinchwad","RH NO 1, Sai Orchards Society, behind Govind Garden Road","Sai Nagar Park, Pimple Saudagar",18.5954707,73.8030696,Hospital,5.0,"Dr Priti Deshmukh, Ayurvedic Doctor in Pimple Saudagar, PCMC, Pune"
411027,Pimple Saudagar,"Pune, Pimpri-Chinchwad","Shivar Garden, Fortuna, Ground, Chowk, next to Radha Krishna Hotel",Pimple Saudagar,18.5960286,73.7893464,Clinic,3.5,"Suburban Diagnostics | Diagnostic Centre (Pimple Saudagar, Pune)"
411027,"Sai Nagar Park, Pimple Saudagar","Pune, Pimpri-Chinchwad","Shop #16, Ganesham Commercial A, Nashik Phata Road, near Govind Yashada Chowk","Sai Nagar Park, Pimple Saudagar",18.5974892,73.8054365,Clinic,4.9,Acme Physiotherapy and Chiropractic Clinic in Pimple Saudagar - Chiropractor | Physiotherapist| Rehab
411027,Pimple Saudagar,"Pune, Pimpri-Chinchwad","Shop No.4,Sai Square, near Govind Garden",Pimple Saudagar,18.5949328,73.8024277,Clinic,4.9,S NEO MED
411027,"Roseland Residency, Pimple Saudagar","Pune, Pimpri-Chinchwad","Swasthya clinic 204/205 Prime square building Opp Dutta mandir Near, Kunal Icon Rd","Roseland Residency, Pimple Saudagar",18.5933972,73.7958884,Clinic,4.074681076562989,"Lifespan Diabetes & Cardiometabolic Clinic, Pimple Saudagar"
411027,"Kunj Colony, Pimple Saudagar","Pune, Pimpri-Chinchwad","SAI AMBIENCE & SAI VISION, 4th, Kunal Icon Rd","Kunj Colony, Pimple Saudagar",18.5928034,73.80102459999999,Clinic,4.9,"Physio Zone - Physiotherapist in Pimpri Chinchwad, Pimple Saudagar and Pune"
411017,"Prassana Colony, Rahatani","Pune, Pimpri-Chinchwad","Office No. 209, GK Sapphire, Opposite Radhika Electronics, Pimple Saudagar","Prassana Colony, Rahatani",18.5998176,73.7927283,Clinic,4.8,Positive Health Clinic Dr. Swati Ghonge MBBS MD
411027,Pimple Saudagar,Pimpri-Chinchwad,"Vision Galleria Complex, Kunal Icon Rd, 401/402 4th Floor, opposite G Mart | QUALITAIL",Pimple Saudagar,18.5936086,73.7927866,Restaurant,3.8,Bay Leaf Bistro
411027,"Prime Square Society, Pimple Saudagar","Pune, Pimpri-Chinchwad","Roof Top, Prime Square, Opp Dutt Mandir, Kunal Icon Rd","Prime Square Society, Pimple Saudagar",18.593966,73.79388,Restaurant,4.0,Rangla Punjab - Pimple Saudagar
411027,"Prime Square Society, Roseland Residency, Pimple Saudagar","Pune, Pimpri-Chinchwad","Kunal Icon Rd, near Roseland Residency Road","Prime Square Society, Roseland Residency, Pimple Saudagar",18.5936683,73.7943238,Restaurant,2.0,Indie local Pimple Saudagar
411027,"Roseland Residency, Pimple Saudagar","Pune, Pimpri-Chinchwad","Vision 9 , Shop no 55, Kunal Icon Rd","Roseland Residency, Pimple Saudagar",18.5920568,73.79506239999999,Restaurant,2.772750146164022,A-Square
411027,"Sunshine Villas, Mana-mandir Society, Rahatani","Pune, Pimpri-Chinchwad","Near Kunal Icon,, Survey No.18/11/6, Rahatani Rd, Near Kunal Icon","Sunshine Villas, Mana-mandir Society, Rahatani",18.5953144,73.7876879,Restaurant,3.9,Shivar Garden Restaurant
411017,"Arvind Colony, Pimple Saudagar","Pune, Pimpri-Chinchwad","Divya Heights, Shop Number 13 Near Kokane Chowk, Rahatani, Road","Arvind Colony, Pimple Saudagar",18.6008241,73.7937993,Restaurant,4.7,Taco Alfresco
411027,"Dwarkadheesh Gardens, Rahatani","Pune, Pimpri-Chinchwad",Kokane Chowk,"Dwarkadheesh Gardens, Rahatani",18.5972105,73.7898353,Restaurant,5.0,Taste Bite cafe pimple saudagar
411027,"Deepmala Society, Pimple Saudagar","Pune, Pimpri-Chinchwad","Lane 2, Rahatni Shivar Chowk, near more super market","Deepmala Society, Pimple Saudagar",18.597707,73.7916142,Restaurant,4.5,Olive Garden Restaurant
411027,Pimple Saudagar,"Pune, Pimpri-Chinchwad","s, 119A, Kunal Icon Rd, near Kunal Icon",Pimple Saudagar,18.5942131,73.7898593,Restaurant,3.7,Collection O Hotel Saudagar
411027,Pimple Saudagar,"Pune, Pimpri-Chinchwad","Shama Prestige, near, Kokane Chowk, opp. Vijay Sales",Pimple Saudagar,18.6011702,73.7946742,Restaurant,4.0,K9 The Coast Line Multi Cuisine Find Dining Restaurant Speciality C Food
411027,Pimple Saudagar,"Pune, Pimpri-Chinchwad","Commercial Complex, Rose Icon Tennis Court, Shop No. 13, Kunal Icon Rd, near IFB Point",Pimple Saudagar,18.5934468,73.7993443,Restaurant,3.6,"MahaKhavaiyye, Pimple Saudagar"
411027,"Sai Nagar Park, Pimple Saudagar",Pimpri-Chinchwad,Vibgyor School Rd,"Sai Nagar Park, Pimple Saudagar",18.5965356,73.8024331,Restaurant,4.0,Govind Garden
411027,"Kate Vasti Pimple Saudagar, Kunj Colony, Pimple Saudagar","Pune, Pimpri-Chinchwad","Haveli, Near, Mangaldeep Preet Pride, Shop no 1, Ground floor, Lane Number 3","Kate Vasti Pimple Saudagar, Kunj Colony, Pimple Saudagar",18.5924608,73.8028413,Restaurant,4.6,One China
411027,"Deepmala Society, Pimple Saudagar",Pimpri-Chinchwad,"shop no 173, 1 & 2, Shiv Sai Ln, Near Lotus Hospital","Deepmala Society, Pimple Saudagar",18.5992331,73.794039,Restaurant,3.9,Qabil-e-Tareef
411017,"Prassana Colony, Pimple Saudagar","Pune, Pimpri-Chinchwad","Shop No -6, Building- A, Royal Tranquil Near Kokane chowk, Rahatani Rd","Prassana Colony, Pimple Saudagar",18.5982436,73.7903972,Restaurant,4.2,Slice of Heaven
411027,Pimple Saudagar,Pimpri-Chinchwad,"Shop No 1, Vision 9, opposite Corporation Bank",Pimple Saudagar,18.5947488,73.7931383,Restaurant,3.6,Ghar Ka Khana - Since 2005 (Family Restaurant)PimpleSaudagar
411027,Pimple Saudagar,Pimpri-Chinchwad,"Vision Galleria, 4th floor, Rooftop",Pimple Saudagar,18.5935889,73.7926695,Restaurant,3.8,Magnum Opus
411027,Pimple Saudagar,"Pune, Pimpri-Chinchwad","Shop no. 90, Vision 9 Mall, Kunal Icon Rd",Pimple Saudagar,18.5946482,73.7932399,Restaurant,4.0,Cafe Durga Pimple Saudagar
411027,Pimple Saudagar,Pimpri-Chinchwad,"Shreeji Vihar Society Block-G, Floor 1, Kunal Icon Rd, near Vision 9 Mall",Pimple Saudagar,18.5939728,73.79272379999999,Restaurant,3.8,Cafe Peter Pimple Saudagar
411027,"Chowk, Pimple Saudagar",Pimpri-Chinchwad,"Fortuna Complex, Near, Shivar Garden Rd","Chowk, Pimple Saudagar",18.5958517,73.7891975,Restaurant,3.9,Radha Krishna Veg Cuisine
411027,"Kate Vasti Pimple Saudagar, Kunj Colony, Pimple Saudagar","Pune, Pimpri-Chinchwad","the kamini garden, Sr. No. 63/4, B-1, 388, Shelar, Kate Vasti Ln","Kate Vasti Pimple Saudagar, Kunj Colony, Pimple Saudagar",18.5918178,73.8037394,Restaurant,4.6,Kamini Garden Family Restro & Bar
411027,"Prassana Colony, Pimple Saudagar","Pune, Pimpri-Chinchwad","A1, Tushar Residency, near, Kokane Chowk, opposite Ranka jewellers","Prassana Colony, Pimple Saudagar",18.5988703,73.79177299999999,Restaurant,4.2,Peshwai Misal
411017,Pimple Saudagar,"Pune, Pimpri-Chinchwad","Shop 10, ROSE ICON, Kunal Icon Rd, near Vijaya Bank",Pimple Saudagar,18.5934454,73.7993382,Restaurant,3.8,Mr and Mrs Idly Pimple Saudagar
411017,"Jagtap Dairy, Pimple Saudagar","Pune, Pimpri-Chinchwad","Spot 18 Mall, 8/9th Floor, Rahatani Rd","Jagtap Dairy, Pimple Saudagar",18.5937723,73.7860271,Restaurant,3.7,18 Degrees
411027,"Kate Vasti Pimple Saudagar, Kunj Colony, Pimple Saudagar","Pune, Pimpri-Chinchwad","Building, 64/3, besides CNG Petrol Pump, M Square","Kate Vasti Pimple Saudagar, Kunj Colony, Pimple Saudagar",18.5923829,73.8037286,Restaurant,4.3,Punjab Canteen
411027,Pimple Saudagar,Pimpri-Chinchwad,"Shivar Chowk, 8th Floor, Fortuna Complex, Wakad - Nashik Phata BRTS Rd, opp. Rainbow Plaza",Pimple Saudagar,18.5959078,73.7893495,Restaurant,4.1,"Barrio Rooftop, AC Restaurant & Bar - Pimple Saudagar"
411027,"Deepmala Society, Pimple Saudagar",Pimpri-Chinchwad,"Parvasaakshi Apartments, 3, Shiv Sai Ln, next to Lotus Hospital","Deepmala Society, Pimple Saudagar",18.5990202,73.79473349999999,Restaurant,4.1,Delhi Kitchen (Pimple Saudagar)
411027,Pimple Saudagar,"Pune, Pimpri-Chinchwad","Shop no.1&2, Ganesh Park, opp. Hotel Govind Garden",Pimple Saudagar,18.5953138,73.8023998,Restaurant,4.0,NAKSHATRA PURE VEG FAMILY RESTAURANT
411027,"Sai Nagar Park, Pimple Saudagar","Pune, Pimpri-Chinchwad","Shop no 5, shubham heights, near gold gym","Sai Nagar Park, Pimple Saudagar",18.5983572,73.80655589999999,Restaurant,4.2,"Charcoal Eats - Biryani & Beyond, Pimple Saudagar"
411017,"Sunshine Villas, Dwarkadheesh Gardens, Pimple Saudagar","Pune, Pimpri-Chinchwad","Shop 22, Part C, Ground Floor, Rainbow Plaza, Near, Shivar Garden Rd","Sunshine Villas, Dwarkadheesh Gardens, Pimple Saudagar",18.5956641,73.7882104,Restaurant,4.1,Taco Bell
411027,"Deepmala Society, Pimple Saudagar","Pune, Pimpri-Chinchwad","4th Floor, Royal Tranquil, Kokane Chowk","Deepmala Society, Pimple Saudagar",18.5981114,73.7907991,Restaurant,4.0,Karachi Biryani house & Bar
411027,"Mana-mandir Society, Pimple Saudagar","Pune, Pimpri-Chinchwad","HQVQ+J5J, Unnamed Road","Mana-mandir Society, Pimple Saudagar",18.5940907,73.7879023,Restaurant,2.0,Hotel Maufa Place
411027,Pimple Saudagar,"Pune, Pimpri-Chinchwad","Survey No. 27, Govind Yashada Square, BRT Road",Pimple Saudagar,18.5978843,73.7993863,Restaurant,4.3,Naadbrahma idli Pimple Saudagar
411061,Pimple Saudagar,"Pune, Pimpri-Chinchwad","256, Kunal Icon Rd",Pimple Saudagar,18.5940149,73.7930535,Restaurant,4.2,KNS
411027,Pimple Saudagar,"Pune, Pimpri-Chinchwad","Commercial complex, Rose Icon Society Rd, opposite Vijauya Bank",Pimple Saudagar,18.5933074,73.7990775,Restaurant,3.9,MH 27- Chav Assal Maharashtrachi
411017,"Chowpatty, Pimple Saudagar","Pune, Pimpri-Chinchwad","Shop No. 01, Kokane, near Hydrabadi Biryani House","Chowpatty, Pimple Saudagar",18.5980924,73.7900138,Restaurant,3.4,Pizza Heritage
411027,Pimple Saudagar,"Pune, Pimpri-Chinchwad","Shop no. 4, Dwarkadhish Residency, Kunal Icon Rd, next to Hotel Suadagar",Pimple Saudagar,18.5942926,73.7896272,Restaurant,4.1,Venkys Chicken Experience (Pimple Saudagar)
411027,Pimple Saudagar,Pimpri-Chinchwad,"A3, Pimple Saudagar Rd",Pimple Saudagar,18.5996543,73.8074412,Restaurant,3.5,Swaraj Family Garden
411027,"Roseland Residency, Pimple Saudagar","Pune, Pimpri-Chinchwad","No.133, Brand Square, Utopia, 301, Sr. 134, Kunal Icon Rd","Roseland Residency, Pimple Saudagar",18.5931114,73.79631479999999,Restaurant,4.1,Pasco Kitchen & Bar
411027,"Kate Vasti Pimple Saudagar, Kunj Colony, Pimple Saudagar","Pune, Pimpri-Chinchwad","SAI AMBIENCE & SAI VISION, shop no 1, Kunal Icon Rd","Kate Vasti Pimple Saudagar, Kunj Colony, Pimple Saudagar",18.5927082,73.8012828,Restaurant,4.1,Kimling Rush
411027,"Prassana Colony, Pimple Saudagar","Pune, Pimpri-Chinchwad","Kokane Choupati, Kokane Chowk","Prassana Colony, Pimple Saudagar",18.5977476,73.79069369999999,Restaurant,4.2,Shegaon Kachori In Kokane chowk pimple saudagar Pune
411057,"Park Street, Wakad",Pimpri-Chinchwad,Aundh - Ravet BRTS Rd,"Park Street, Wakad",18.594928,73.78300329999999,Restaurant,4.5,Pakwan Food Tradition Veg Restaurant
411027,Pimple Saudagar,Pimpri-Chinchwad,"Ground Floor, Vision Galleria, opp. G Mart",Pimple Saudagar,18.5936682,73.7929058,Restaurant,4.0,Katakirrr Misal (Pimple Saudagar)
411027,Pimple Saudagar,"Pune, Pimpri-Chinchwad","Dwarkadheesh Residency, Shop No 3 B Wing",Pimple Saudagar,18.5948697,73.78916939999999,Restaurant,4.0,Ganesh Bhel And Chaat Products Pvt.Ltd (Pimple Saudagar)
411027,Pimple Saudagar,Pimpri-Chinchwad,"HQWX+X72, P.K. Chowk, Jarvari Rd",Pimple Saudagar,18.5975461,73.797805,Restaurant,3.7,New Ashoka Pure Veg
411027,"Shakti Colony, Pimple Nilakh",Pimpri-Chinchwad,Wakad - Bhosari BRTS Rd,"Shakti Colony, Pimple Nilakh",18.5921961,73.7838434,Restaurant,4.1,Copa Villa
411027,Pimple Saudagar,"Pune, Pimpri-Chinchwad","Plot no 150, PK chowk, Shop no. 2.3 Shirke Patil Plaza",Pimple Saudagar,18.5988617,73.7977817,Restaurant,4.0,Peshwai Spice
411027,"Siddhivinayak Ginger Society, Kate Vasti Pimple Saudagar, Siddhivinayak Ginger, Pimple Saudagar","Pune, Pimpri-Chinchwad","S. no. - 83/84/85, Vision Flora, Shop no. 38 ground floor, Kunjir Chowk","Siddhivinayak Ginger Society, Kate Vasti Pimple Saudagar, Siddhivinayak Ginger, Pimple Saudagar",18.5928834,73.80017889999999,Restaurant,4.1,Masters Biryani N Grill- Pimple Saudagar
411027,Pimple Saudagar,Pimpri-Chinchwad,"7, Kunal Icon Rd, near बैंक ऑफ़ महाराष्ट्र",Pimple Saudagar,18.5945441,73.7890942,Restaurant,4.3,Taste of Indore - Fun Food since 2016
411027,"Sai Nagar Park, Pimple Gurav",Pimpri-Chinchwad,"10, Shubham Heights, near GOLD GYM Park","Sai Nagar Park, Pimple Gurav",18.598207,73.80645799999999,Restaurant,3.8,Rolls Mania Pimple Saudagar pune
411027,"Siddhivinayak Ginger Society, Siddhivinayak Ginger, Pimple Saudagar","Pune, Pimpri-Chinchwad","Shop 146, Vision Flora, Opp. PCMC grounds","Siddhivinayak Ginger Society, Siddhivinayak Ginger, Pimple Saudagar",18.5925775,73.79989669999999,Restaurant,4.0,N'tice
411027,Pimple Saudagar,"Pune, Pimpri-Chinchwad","Shop no 91, V9 Mall, Kunal Icon Rd",Pimple Saudagar,18.5940133,73.79311729999999,Restaurant,5.0,Flavors of India
411027,"Shri Ram Colony, Pimple Saudagar",Pimpri-Chinchwad,HQXX+J5C,"Shri Ram Colony, Pimple Saudagar",18.5990622,73.7978839,Restaurant,3.8,Malashree Pure Veg Pimple Saudgar
411027,"Part 3, Pimple Saudagar","Pune, Pimpri-Chinchwad","Shop No 2, RAJAVEER PALACE","Part 3, Pimple Saudagar",18.5933045,73.7986107,Restaurant,3.8,Pizza Hut
411027,Pimple Saudagar,"Pune, Pimpri-Chinchwad","Shop no. 85, Vision 9 Mall, Kunal Icon Rd",Pimple Saudagar,18.594418,73.79330329999999,Restaurant,5.0,Yummy Foods
411027,Pimple Saudagar,"Pune, Pimpri-Chinchwad",near Govind Garden Restaurant,Pimple Saudagar,18.5986763,73.79783479999999,Restaurant,2.4339039815367762,Foodie World
411027,"Sai Nagar Park, Pimple Saudagar","Pune, Pimpri-Chinchwad","Shop no. 9, Simran Corner, Govind Garden Chowk, near Govind Garden","Sai Nagar Park, Pimple Saudagar",18.5952563,73.8036291,Restaurant,3.9,The Bengal Kitchen
411027,"Sai Nagar Park, Pimple Gurav",Pimpri-Chinchwad,"Sr.no 36, zinjurde mala, 31/1, Pimple Saudagar Rd","Sai Nagar Park, Pimple Gurav",18.5965302,73.8088045,Restaurant,4.0,Hotel Crystal Hut
411017,"Prassana Colony, Pimple Saudagar",Pimpri-Chinchwad,"Shop No-7, Royal Tranquil, S No.6, Behind Chitale Bandhu Mithaiwale, Kokane Chowk","Prassana Colony, Pimple Saudagar",18.5982105,73.7902328,Restaurant,4.9,Nourishing Farms Cafe (Pimple Saudagar)
411027,Pimple Saudagar,"Pune, Pimpri-Chinchwad","Shop No-1, Wing-E, ELMWoods Society,S:No- 68/1, 69/2",Pimple Saudagar,18.5945387,73.8020003,Restaurant,4.1,Chilimili Restaurants & caterer
411027,Pimple Saudagar,Pimpri-Chinchwad,"Ward No. 27, S.No. 150, Shop No. 4, Shirke Patil Plaza",Pimple Saudagar,18.5987574,73.79771649999999,Restaurant,4.5,Spice on truck
411027,"Dwarkadheesh Gardens, Pimple Saudagar","Pune, Pimpri-Chinchwad",Kokane Chowk,"Dwarkadheesh Gardens, Pimple Saudagar",18.597346,73.7905,Restaurant,4.7,Mehfil Chinese Cuisine
411017,"Dwarkadheesh Gardens, Rahatani",Pimpri-Chinchwad,"Shahi Bhoj Thali Shop no 1 Shree Ganesh Ace Arcade, Kokane Chowk","Dwarkadheesh Gardens, Rahatani",18.5982644,73.7888385,Restaurant,4.0,Shahi Bhoj Thali Restaurant (Pimple Saudagar) Pure Veg
411027,"Mithila Nagari, Pimple Saudagar","Pune, Pimpri-Chinchwad","Shop No 7, Sai Vastu, Seven Star Ln, Near State Bank of India","Mithila Nagari, Pimple Saudagar",18.5981648,73.8045854,Restaurant,3.8,RushHrs
411027,Pimple Saudagar,Pimpri-Chinchwad,"Shop No. 4, PK Chowk, Champaran Handi Junction, Pimple Saudagar Shirke Patil Plaza",Pimple Saudagar,18.5987222,73.7976975,Restaurant,4.6,Champaran Handi Junction
411027,"Pimple Saudagar Gaon, Pimple Saudagar","Pune, Pimpri-Chinchwad","Plot No 628, Pimple, Jr23+J4R, Pimple Saudagar Road, Pimple Saudagar Gaon, Pimple Saudagar, Pimpri-Chinchwad, Division","Pimple Saudagar Gaon, Pimple Saudagar",18.6015499,73.8027973,Restaurant,1.9399007034032656,Aapachi Mutton Khanaval
411027,"Siddhivinayak Ginger Society, Siddhivinayak Ginger, Pimple Saudagar","Pune, Pimpri-Chinchwad","Vision Flora, 33/34, Kunal Icon Rd","Siddhivinayak Ginger Society, Siddhivinayak Ginger, Pimple Saudagar",18.5927354,73.7998406,Restaurant,4.3,Daily Bites by Nine Square
411017,"Rhahtani, Pimple Saudagar","Pune, Pimpri-Chinchwad","Royal Tranquil Shop No -7, Building- A, Near, Kokane Chowk","Rhahtani, Pimple Saudagar",18.5981309,73.7907086,Restaurant,4.5,Kebabsterr
411027,Pimple Saudagar,"Pune, Pimpri-Chinchwad","Vision 9 Mall, Shop no.82, Ground Floor, Kunal Icon Rd",Pimple Saudagar,18.5938053,73.7933049,Restaurant,4.5,Chole Di Rasoi (Chole Bhature)
411027,Pimple Saudagar,"Pune, Pimpri-Chinchwad","Shop No .2 . Sr.no. 64/1, Sai Petrol Pump, Sairaj Rescidency",Pimple Saudagar,18.5928744,73.8037879,Restaurant,4.1,Abhiman Pure Veg
411027,"Roseland Residency, Pimple Saudagar","Pune, Pimpri-Chinchwad","Shop No.83 V9 Mall, Kunal Icon Rd","Roseland Residency, Pimple Saudagar",18.5933972,73.7958884,Restaurant,4.4,Rajbhog Foods
411027,Pimple Saudagar,"Pune, Pimpri-Chinchwad","HQRQ+XXQ, Shop 27 , Kunal Icon shopping complex , Pimple Saudagar",Pimple Saudagar,18.5924741,73.7899925,Restaurant,1.4593713248653413,Eat Pray Love
411027,Pimple Saudagar,"Pune, Pimpri-Chinchwad","TREASURE ISLAND, Shop No 68-69, Shreetee spaces, Society, near Govind Garden restaurant",Pimple Saudagar,18.5942774,73.8019563,Restaurant,3.7,Desi Bites Pune
411027,Pimple Saudagar,"Pune, Pimpri-Chinchwad","Shivar Chowk, Jagtap Dairy Rd",Pimple Saudagar,18.5942173,73.78733849999999,Restaurant,5.0,Shreemant Misal Upahargruh
411027,"Shri Ram Colony, Pimple Saudagar","Pune, Pimpri-Chinchwad","Survey no. 149/9, Damodhar Kate Chowk, Police Chowki Road, Pimple Saudagar, Near Poorva Society","Shri Ram Colony, Pimple Saudagar",18.5988779,73.79805139999999,Restaurant,4.1,Khaana Khazana
411027,Pimple Saudagar,"Pune, Pimpri-Chinchwad","HQVP+PX2, Kokane Estate, Beside More Supermarket, Shivar Garden Chowk, Pimple Saudagar, Pune",Pimple Saudagar,18.594255,73.7873791,Restaurant,5.0,TastyDal.com
411027,Division,"Pune, Pimpri-Chinchwad","Shop No 2, Pimple Saudagar, 8, Treasure Island Road, Govind Gdn Rd, near Hotel",Division,18.5942467,73.8019588,Restaurant,3.0,Nashta Holic
411027,Pimple Saudagar,"Pune, Pimpri-Chinchwad","Shop No 2 Poorva Residence Near Challenger school, Shiv Sai Ln",Pimple Saudagar,18.5991011,73.7979096,Restaurant,4.3,Schezwan Shack Chinese restaurant
411027,"Mithila Nagari, Pimple Saudagar",Pimpri-Chinchwad,4,"Mithila Nagari, Pimple Saudagar",18.5992394,73.8028118,Restaurant,5.0,Ramdev bhojnalaya - Pimple Saudagar
411027,Pimple Saudagar,"Pune, Pimpri-Chinchwad","Shop no A2, Simran Corner",Pimple Saudagar,18.5949871,73.8038054,Restaurant,3.9,Aabachi Misal
411018,"Pimple Saudagar Gaon, Pimpri Colony",Pimpri-Chinchwad,"JR22+M77, Pimple Saudagar Rd, near Vishal Wadewale","Pimple Saudagar Gaon, Pimpri Colony",18.6016506,73.8006846,Restaurant,3.7,Hotel Pimple Saudagar
411027,"Kate Vasti Pimple Saudagar, Kunj Colony, Pimple Saudagar","Pune, Pimpri-Chinchwad","Shop No 1, near Pimpri Chinchwad","Kate Vasti Pimple Saudagar, Kunj Colony, Pimple Saudagar",18.5883085,73.8008224,Restaurant,0.11340185773716427,La Pino'z Pizza
411027,"Mana-mandir Society, Rahatani",Pimpri-Chinchwad,"Spot 18, Sai Chowk, Rahatani Rd, near Jagtap Dairy","Mana-mandir Society, Rahatani",18.5938968,73.7862378,Restaurant,4.1,La Pino'z Pizza Pimple Saudagar
411027,Pimple Saudagar,"Pune, Pimpri-Chinchwad","Shop no 2, Keshav Nagar, Opp Yash Sankul, Swaras Garden Road, Pimple, Saudagar",Pimple Saudagar,18.6003179,73.8053264,Restaurant,3.8,CHINA TOWN CHINESE CENTER
411027,"Prime Square Society, Pimple Saudagar","Pune, Pimpri-Chinchwad","Prime Square, Kunal Icon Rd","Prime Square Society, Pimple Saudagar",18.59405,73.79388399999999,Restaurant,2.9,ITMINAAN BIRYANI - Dum Pukht | Order Food Online
411017,"Rahatani Gaon, Somdas Colony, Rahatani",Pimpri-Chinchwad,JQ3R+PCP,"Rahatani Gaon, Somdas Colony, Rahatani",18.6042226,73.79125429999999,Restaurant,3.5,"Rohit Wadewale, Rahatani - Pimple Saudagar"
411027,Pimple Saudagar,"Pune, Pimpri-Chinchwad","Upsouth,Govind garden road",Pimple Saudagar,18.5949512,73.80382039999999,Restaurant,3.8,Upsouth
411027,Pimple Saudagar,Pimpri-Chinchwad,"Sai Dream Shop No 3 Opp Palm Breeze, near Govind Garden",Pimple Saudagar,18.593581,73.802224,Restaurant,4.1,Golden Chopsticx
411027,Pimple Saudagar,Pimpri-Chinchwad,"Shop No 1, Poorva Residency, PK Chowk, next to Malashree Pure Veg",Pimple Saudagar,18.598933,73.7968503,Restaurant,3.7,The Eatery Hub !
411027,"Ganeesham Phase 2, Sai Nagar Park, Pimple Saudagar","Pune, Pimpri-Chinchwad","I-902, Shop No. 13, Nashik Phata Road, opposite to Sai Nagar Park","Ganeesham Phase 2, Sai Nagar Park, Pimple Saudagar",18.5977281,73.805736,Restaurant,4.2,Anaya Family Restaurant
411027,"Prime Square Society, Pimple Saudagar","Pune, Pimpri-Chinchwad","Prime Square, Kunal Icon Rd","Prime Square Society, Pimple Saudagar",18.59405,73.79388399999999,Restaurant,4.989640359872583,MEALFUL WRAPS - Meals in a Wrap | Order Food Online
411027,Pimple Saudagar,"Pune, Pimpri-Chinchwad","Castalia, Society, Seven Star Ln",Pimple Saudagar,18.5989771,73.80592349999999,Restaurant,4.8,BHOOK LAGI (Desi Street Food Adda)
411027,"Vishawshanti Colony, Dwarkadheesh Gardens, Rahatani",Pimpri-Chinchwad,"Blue Saffire complex, Wakad - Nashik Phata BRTS Rd","Vishawshanti Colony, Dwarkadheesh Gardens, Rahatani",18.5975286,73.8009146,Restaurant,3.7,Tatva Pimple Saudagar
411027,Pimple Saudagar,"Pune, Pimpri-Chinchwad","5th Floor, RK Lunkad Business Center, Kokane Chowk, above Reliance fresh",Pimple Saudagar,18.5968852,73.7904108,Gym,4.1,Gold's Gym Pimple Saudagar
411027,Pimple Saudagar,"Pune, Pimpri-Chinchwad","Shubhashree Woods Row House CHS, CLUB HOUSE, Amenity Space, Commercial, Kunal Icon Rd",Pimple Saudagar,18.5935199,73.7932439,Gym,4.0,Solaris Pimple Saudagar
411017,"Shivraj Nagar, Rahatani","Pune, Pimpri-Chinchwad","Second floor, Vandana Plaza, Near Akash Ganga Society Kokane Chowk, Road","Shivraj Nagar, Rahatani",18.5994369,73.7856145,Gym,4.9,NXTFIT Crosstraining Studio & Gym | Near Kokane Chowk
411017,"Mana-mandir Society, Pimple Saudagar",Pimpri-Chinchwad,"Spot 18 Mall, 6th Floor, Rahatani Rd, Near Jagtap Dairy","Mana-mandir Society, Pimple Saudagar",18.5938173,73.7860735,Gym,4.4,Multifit Pimple Saudagar
411027,Pimple Saudagar,"Pune, Pimpri-Chinchwad","J101, 4, Roseland Residency Rd",Pimple Saudagar,18.5939399,73.793264,Gym,4.0,Urbounce Pimple Saudagar
411027,"Rahatani Gaon, Pawana Nagar, Rahatani",Pimpri-Chinchwad,"Near, Bus Stop, 2nd Floor, Kokane Heights","Rahatani Gaon, Pawana Nagar, Rahatani",18.602918,73.796375,Gym,4.6,S-Square Fitness Club
411027,"Rambagh Colony, Rahatani","Pune, Pimpri-Chinchwad","Greenlands Rd, opp. SNBP School","Rambagh Colony, Rahatani",18.6000596,73.7876568,Gym,4.2,Endure Fitness Club - Pimple Saudagar
411027,"Prime Square Society, Roseland Residency, Pimple Saudagar",Pimpri-Chinchwad,3rd floor,"Prime Square Society, Roseland Residency, Pimple Saudagar",18.5939458,73.79388759999999,Gym,4.1,MetaFit
411027,Pimple Saudagar,"Pune, Pimpri-Chinchwad","2nd Floor, Rose Icon Amenity Building, Kunal Icon Rd",Pimple Saudagar,18.593238,73.799354,Gym,4.7,FITNESS Hub
411027,Pimple Saudagar,"Pune, Pimpri-Chinchwad","4th Floor Rajaveer Palace Phase 2 Above Yes Bank, near Seva Vikas Bank",Pimple Saudagar,18.5936244,73.7987545,Gym,4.9,MAHANTT FITTNESSS
411027,Pimple Saudagar,Pimpri-Chinchwad,"Srishtee spaces, 3 rd floor, 106, Govind Gdn Rd, next to Govind Garden",Pimple Saudagar,18.5941956,73.8019228,Gym,4.9,Indian Fitness Club Pimple Saudagar
411027,"Rambagh Colony, Pimple Saudagar",Pimpri-Chinchwad,"Rahatani, Aakashganga Rd, Near cafe chocolicious Rambagh Colony","Rambagh Colony, Pimple Saudagar",18.5987333,73.7896433,Gym,4.1,AVR Fitness Club
411027,"Deepmala Society, Pimple Saudagar","Pune, Pimpri-Chinchwad","HQXW+7WX, Nashik Phata Road","Deepmala Society, Pimple Saudagar",18.5982443,73.7973614,Park,3.9,Park Pimple Saudagar
411027,"Deepmala Society, Pimple Saudagar",Pimpri-Chinchwad,"HQWR+QQX, Kokane Chawk to Swaraj Garden Pimpari- Pune","Deepmala Society, Pimple Saudagar",18.5969751,73.7919903,Park,4.5,Pimple Saudagar Linear Garden
412308,"North Hadapsar, Hadapsar",Pune,"Magarpatta Rear Approach, Road","North Hadapsar, Hadapsar",18.5077619,73.92606099999999,Hotel,4.2,Say NO to PG
411013,"Magarpatta, Hadapsar",Pune,"Options, City Point society, Above PH diagnostics Besides 9","Magarpatta, Hadapsar",18.5061104,73.9276175,Hostel,4.0,Sunrise Boys PG
411028,"Malwadi, Hadapsar",Pune,"Sai villa co-op housing society A-102, near यश हॉस्पिटल","Malwadi, Hadapsar",18.5102388,73.93808949999999,Hostel,4.5,My Own Space PG
411013,"Dnyandeep Society, Magarpatta, Hadapsar",Pune,"Jagtap pg, Dnyandeep society Amoldeep bungalow, A-6, near tata motars, near Magarpatta city","Dnyandeep Society, Magarpatta, Hadapsar",18.5064958,73.9269972,Hostel,4.6,Jagtap girls pg
411013,"Dnyandeep Society, Magarpatta, Hadapsar",Pune,"Snehankit Apartments, B-4, near Magarpatta","Dnyandeep Society, Magarpatta, Hadapsar",18.5065457,73.927326,Hostel,5.0,Snehankit Girls PG
411013,"City Point Society, Magarpatta, Hadapsar",Pune,"Plot No. 25, Malhar Niwas Sr No. 151, 12/1, near Badadhe Garage","City Point Society, Magarpatta, Hadapsar",18.5065912,73.9252807,Hostel,4.6,BAVESH GIRLS PG
411028,"Magarpatta, Hadapsar",Pune,"GW4G+XR6, Tilekarwasti Near to Sukhwani emeralds society","Magarpatta, Hadapsar",18.507423,73.9270255,Hostel,3.5,VASAVI PG FOR LADIES
411028,"City Point Society, North Hadapsar, Hadapsar",Pune,P-23 A,"City Point Society, North Hadapsar, Hadapsar",18.5066623,73.9254495,Hostel,3.3,Amma's rasoi
411028,"Magarpatta, Hadapsar",Pune,"Cybercity, Magarpatta City, Hadapsar","Magarpatta, Hadapsar",18.517641,73.928718,Hostel,4.5,"The Host Serviced Apartment, Magarpatta"
411013,"Dnyandeep Society, Magarpatta, Hadapsar",Pune,"Bungalow no B24, Besides Aditi Emrald, behind Sundar Sankul building","Dnyandeep Society, Magarpatta, Hadapsar",18.5068535,73.9251436,Hostel,4.4,Sunrise Girls PG
411028,"Tukaram Tupe Nagar, Hadapsar",Pune,168/9,"Tukaram Tupe Nagar, Hadapsar",18.5114379,73.937626,Hostel,4.1,SS pg
411036,"Magarpatta, Mundhwa",Pune,"In front of shirke company main gate, BG shirke road, route","Magarpatta, Mundhwa",18.5236013,73.9097637,Hostel,4.5,Lotus PG magarpatta
411013,"Dnyandeep Society, North Hadapsar, Hadapsar",Pune,"B9, Magarpatta Rd","Dnyandeep Society, North Hadapsar, Hadapsar",18.5066479,73.9267857,Hostel,1.0,KAMBLE PG
411028,"Magarpatta, Hadapsar",Pune,"GW5G+2V6, Sunlight classic building, Mouli nagar","Magarpatta, Hadapsar",18.5075363,73.92712809999999,Hostel,3.3,Dhanush pg for GENTS AND LADIES
411028,"Satavwadi, Hadapsar",Pune,"Sr. No 13, House Number 252, Saumitra Rd","Satavwadi, Hadapsar",18.4972525,73.9450655,Hostel,4.4,Zolo Hendrix Co-Living | Redefining PG
411028,"Tilekar Vasti, North Hadapsar, Hadapsar",Pune,"Survey No. 149, Athithi Enclave, Mundhwa Rd","Tilekar Vasti, North Hadapsar, Hadapsar",18.5078609,73.9273594,Hostel,3.3,CV Harshavardhan PG For Gents
411028,"Magarpatta, Hadapsar",Pune,"Building No. 168/1, Aruna PG, Sr, No. 6, Tupe Patil Rd, near Yash Hospital","Magarpatta, Hadapsar",18.5113521,73.9376999,Hostel,3.5,Aruna pg for gents and ladies
411028,"North Hadapsar, Hadapsar",Pune,155,"North Hadapsar, Hadapsar",18.5074893,73.9264582,Hostel,4.9,Samruddhi PG Services
411028,"Magarpatta, Hadapsar",Pune,"151, 16, 28","Magarpatta, Hadapsar",18.5061071,73.9268214,Hostel,4.5,Bhujbal pg sarvieses
411028,"Magarpatta, North Hadapsar, Hadapsar",Pune,GW3G+JMR,"Magarpatta, North Hadapsar, Hadapsar",18.5041157,73.92664979999999,Hostel,4.5,Noble hospital hostel
411014,"Hanuman Nagar, Kharadi",Pune,"Survey No 20/4 ,Karadkar park, next to goel ganga","Hanuman Nagar, Kharadi",18.5564872,73.92664239999999,Hostel,5.0,Shree Virat PG
411028,"Keshav Nagar, Hadapsar",Pune,"Yashodhan Hostel / PG / Paying Guest S. No. 168, Tupe Nagar, Keshaw Chowk, near Yash Hospital","Keshav Nagar, Hadapsar",18.5103712,73.9376631,Hostel,3.8,Yashodhan Gents PG | Hostel
411028,"Amanora Park Town, Hadapsar",Pune,"TUKARAM TUPE NAGAR, Tupe Patil Rd, Near SUZLON IT PARK, Opposite MARVEL BOUNTY","Amanora Park Town, Hadapsar",18.5093325,73.93632,Hostel,4.0,Shree Ganesh PG
